{
    "name": "X017",
    "location": {
        "lat": 31.011612,
        "lng": 121.296805
    },
    "address": "上海市松江区",
    "province": "上海市",
    "city": "上海市",
    "area": "松江区",
    "detail": 0,
    "uid": "51f44b42b45bfb1ff90cade0"
}{
    "name": "闵塔路",
    "location": {
        "lat": 30.986032,
        "lng": 121.217138
    },
    "address": "上海市松江区",
    "province": "上海市",
    "city": "上海市",
    "area": "松江区",
    "detail": 0,
    "uid": "da2b4603d327cb7527d2bb22"
}{
    "name": "闵塔公路",
    "location": {
        "lat": 30.985228,
        "lng": 121.271657
    },
    "address": "上海市松江区",
    "province": "上海市",
    "city": "上海市",
    "area": "松江区",
    "detail": 0,
    "uid": "9d47f968f13d905e72455bac"
}{
    "name": "松金公路",
    "location": {
        "lat": 30.961093,
        "lng": 121.244288
    },
    "address": "上海市",
    "province": "上海市",
    "city": "上海市",
    "area": "",
    "detail": 0,
    "uid": "abd8145565ebb27fcc04ef41"
}{
    "name": "利丰河桥",
    "location": {
        "lat": 30.979394,
        "lng": 121.244979
    },
    "address": "上海市松江区",
    "province": "上海市",
    "city": "上海市",
    "area": "松江区",
    "detail": 0,
    "uid": "2989fd573370194b9ce32169"
}{
    "name": "联民中心路",
    "location": {
        "lat": 30.991637,
        "lng": 121.250852
    },
    "address": "上海市松江区",
    "province": "上海市",
    "city": "上海市",
    "area": "松江区",
    "detail": 0,
    "uid": "02cde0e2781c4681f70e77de"
}{
    "name": "盐平公路",
    "location": {
        "lat": 30.981137,
        "lng": 121.236087
    },
    "address": "上海市松江区",
    "province": "上海市",
    "city": "上海市",
    "area": "松江区",
    "detail": 0,
    "uid": "0e78a5a8a616e9644054d7af"
}{
    "name": "玉阳路",
    "location": {
        "lat": 30.993461,
        "lng": 121.234064
    },
    "address": "上海市松江区",
    "province": "上海市",
    "city": "上海市",
    "area": "松江区",
    "detail": 0,
    "uid": "4babcae5a59333554351c0fb"
}{
    "name": "富永路",
    "location": {
        "lat": 31.002907,
        "lng": 121.229279
    },
    "address": "上海市松江区",
    "province": "上海市",
    "city": "上海市",
    "area": "松江区",
    "detail": 0,
    "uid": "2cf69aece30ad8582ab97c5d"
}{
    "name": "富强路",
    "location": {
        "lat": 30.999354,
        "lng": 121.239589
    },
    "address": "上海市松江区",
    "province": "上海市",
    "city": "上海市",
    "area": "松江区",
    "detail": 0,
    "uid": "ca3ce41a9040548903ff2d92"
}{
    "name": "洞泾港桥",
    "location": {
        "lat": 30.984753,
        "lng": 121.266298
    },
    "address": "上海市松江区",
    "province": "上海市",
    "city": "上海市",
    "area": "松江区",
    "detail": 0,
    "uid": "2179c02139342d808bfc06ed"
}{
    "name": "松卫北路",
    "location": {
        "lat": 30.997083,
        "lng": 121.271204
    },
    "address": "上海市",
    "province": "上海市",
    "city": "上海市",
    "area": "",
    "detail": 0,
    "uid": "fe6db711c7dc4b206da3cc1a"
}{
    "name": "闵塔公路",
    "location": {
        "lat": 30.985228,
        "lng": 121.271657
    },
    "address": "上海市松江区",
    "province": "上海市",
    "city": "上海市",
    "area": "松江区",
    "detail": 0,
    "uid": "9d47f968f13d905e72455bac"
}{
    "name": "松浦三桥",
    "location": {
        "lat": 30.962582,
        "lng": 121.271573
    },
    "address": "上海市松江区",
    "province": "上海市",
    "city": "上海市",
    "area": "松江区",
    "detail": 0,
    "uid": "577883fc0e4b738515b54b00"
}{
    "name": "南乐路",
    "location": {
        "lat": 30.987602,
        "lng": 121.271956
    },
    "address": "上海市松江区",
    "province": "上海市",
    "city": "上海市",
    "area": "松江区",
    "detail": 0,
    "uid": "7b5f5e6c772eccf023f01710"
}{
    "name": "欣浪路",
    "location": {
        "lat": 31.001629,
        "lng": 121.283991
    },
    "address": "上海市松江区",
    "province": "上海市",
    "city": "上海市",
    "area": "松江区",
    "detail": 0,
    "uid": "f634dbc848093743353a7122"
}{
    "name": "福卫路",
    "location": {
        "lat": 30.975006,
        "lng": 121.273632
    },
    "address": "上海市松江区",
    "province": "上海市",
    "city": "上海市",
    "area": "松江区",
    "detail": 0,
    "uid": "a7d2de020e5b3447a0046402"
}{
    "name": "官联公路",
    "location": {
        "lat": 30.989432,
        "lng": 121.265813
    },
    "address": "上海市松江区",
    "province": "上海市",
    "city": "上海市",
    "area": "松江区",
    "detail": 0,
    "uid": "bdb683b9de1f0ace71210bad"
}{
    "name": "闵塔路",
    "location": {
        "lat": 30.986032,
        "lng": 121.217138
    },
    "address": "上海市松江区",
    "province": "上海市",
    "city": "上海市",
    "area": "松江区",
    "detail": 0,
    "uid": "da2b4603d327cb7527d2bb22"
}{
    "name": "联梅路",
    "location": {
        "lat": 30.996865,
        "lng": 121.274742
    },
    "address": "上海市松江区",
    "province": "上海市",
    "city": "上海市",
    "area": "松江区",
    "detail": 0,
    "uid": "83c589e6fbe5fe527fc876de"
}{
    "name": "欣浪路",
    "location": {
        "lat": 31.001629,
        "lng": 121.283991
    },
    "address": "上海市松江区",
    "province": "上海市",
    "city": "上海市",
    "area": "松江区",
    "detail": 0,
    "uid": "f634dbc848093743353a7122"
}{
    "name": "华泖路",
    "location": {
        "lat": 30.99038,
        "lng": 121.287555
    },
    "address": "上海市松江区",
    "province": "上海市",
    "city": "上海市",
    "area": "松江区",
    "detail": 0,
    "uid": "175ce877b905a6d477026994"
}{
    "name": "松卫北路",
    "location": {
        "lat": 30.997083,
        "lng": 121.271204
    },
    "address": "上海市",
    "province": "上海市",
    "city": "上海市",
    "area": "",
    "detail": 0,
    "uid": "fe6db711c7dc4b206da3cc1a"
}{
    "name": "南乐路",
    "location": {
        "lat": 30.987602,
        "lng": 121.271956
    },
    "address": "上海市松江区",
    "province": "上海市",
    "city": "上海市",
    "area": "松江区",
    "detail": 0,
    "uid": "7b5f5e6c772eccf023f01710"
}{
    "name": "车阳路",
    "location": {
        "lat": 30.992367,
        "lng": 121.27065
    },
    "address": "上海市松江区",
    "province": "上海市",
    "city": "上海市",
    "area": "松江区",
    "detail": 0,
    "uid": "4d235f42b45bfb1ff80caddb"
}{
    "name": "松浦三桥",
    "location": {
        "lat": 30.962582,
        "lng": 121.271573
    },
    "address": "上海市松江区",
    "province": "上海市",
    "city": "上海市",
    "area": "松江区",
    "detail": 0,
    "uid": "577883fc0e4b738515b54b00"
}{
    "name": "华泖公路",
    "location": {
        "lat": 30.98947,
        "lng": 121.286666
    },
    "address": "上海市松江区",
    "province": "上海市",
    "city": "上海市",
    "area": "松江区",
    "detail": 0,
    "uid": "15c12b229705ec65d23ce38a"
}{
    "name": "福卫路",
    "location": {
        "lat": 30.975006,
        "lng": 121.273632
    },
    "address": "上海市松江区",
    "province": "上海市",
    "city": "上海市",
    "area": "松江区",
    "detail": 0,
    "uid": "a7d2de020e5b3447a0046402"
}{
    "name": "长福公路",
    "location": {
        "lat": 30.968736,
        "lng": 121.275478
    },
    "address": "上海市松江区",
    "province": "上海市",
    "city": "上海市",
    "area": "松江区",
    "detail": 0,
    "uid": "c401883bd64eb41cdaeced02"
}{
    "name": "泾车路",
    "location": {
        "lat": 30.997311,
        "lng": 121.301322
    },
    "address": "上海市松江区",
    "province": "上海市",
    "city": "上海市",
    "area": "松江区",
    "detail": 0,
    "uid": "9a288f887af77d1e8d7727b7"
}{
    "name": "旺盛路",
    "location": {
        "lat": 30.986721,
        "lng": 121.308893
    },
    "address": "上海市松江区",
    "province": "上海市",
    "city": "上海市",
    "area": "松江区",
    "detail": 0,
    "uid": "4165627d2e2bce8caa059d02"
}{
    "name": "松浦大桥",
    "location": {
        "lat": 30.971355,
        "lng": 121.32143
    },
    "address": "上海市松江区",
    "province": "上海市",
    "city": "上海市",
    "area": "松江区",
    "detail": 0,
    "uid": "a00a570650e300ad2dfaa78d"
}{
    "name": "车阳路",
    "location": {
        "lat": 30.992367,
        "lng": 121.27065
    },
    "address": "上海市松江区",
    "province": "上海市",
    "city": "上海市",
    "area": "松江区",
    "detail": 0,
    "uid": "4d235f42b45bfb1ff80caddb"
}{
    "name": "薛亭路",
    "location": {
        "lat": 30.985204,
        "lng": 121.299328
    },
    "address": "上海市松江区",
    "province": "上海市",
    "city": "上海市",
    "area": "松江区",
    "detail": 0,
    "uid": "446fcfe5a59333554251c0b7"
}{
    "name": "引水路",
    "location": {
        "lat": 30.98297,
        "lng": 121.313714
    },
    "address": "上海市松江区",
    "province": "上海市",
    "city": "上海市",
    "area": "松江区",
    "detail": 0,
    "uid": "be898cc8210ef240754ff16b"
}{
    "name": "西堆场路",
    "location": {
        "lat": 30.979689,
        "lng": 121.316018
    },
    "address": "上海市松江区",
    "province": "上海市",
    "city": "上海市",
    "area": "松江区",
    "detail": 0,
    "uid": "87a8a1fea9cfa740cb09f022"
}{
    "name": "旺市路",
    "location": {
        "lat": 30.988124,
        "lng": 121.308304
    },
    "address": "上海市松江区",
    "province": "上海市",
    "city": "上海市",
    "area": "松江区",
    "detail": 0,
    "uid": "010e563c98d5a0218a2fb522"
}{
    "name": "泾车路",
    "location": {
        "lat": 30.997311,
        "lng": 121.301322
    },
    "address": "上海市松江区",
    "province": "上海市",
    "city": "上海市",
    "area": "松江区",
    "detail": 0,
    "uid": "9a288f887af77d1e8d7727b7"
}{
    "name": "车水公路",
    "location": {
        "lat": 30.969369,
        "lng": 121.322434
    },
    "address": "上海市松江区",
    "province": "上海市",
    "city": "上海市",
    "area": "松江区",
    "detail": 0,
    "uid": "00c63bfc28cd251102ec01c2"
}{
    "name": "兴茂路",
    "location": {
        "lat": 30.987745,
        "lng": 121.309532
    },
    "address": "上海市松江区",
    "province": "上海市",
    "city": "上海市",
    "area": "松江区",
    "detail": 0,
    "uid": "cdf6661e6219d2b193114ce5"
}{
    "name": "引水公路",
    "location": {
        "lat": 30.985859,
        "lng": 121.327896
    },
    "address": "上海市松江区",
    "province": "上海市",
    "city": "上海市",
    "area": "松江区",
    "detail": 0,
    "uid": "e2ebdae5681fc6473904b1b4"
}{
    "name": "松浦大桥",
    "location": {
        "lat": 30.979622,
        "lng": 121.316325
    },
    "address": "上海市松江区",
    "province": "上海市",
    "city": "上海市",
    "area": "松江区",
    "detail": 0,
    "uid": "a00a570650e300ad2dfaa78d"
}{
    "name": "引水路",
    "location": {
        "lat": 30.983544,
        "lng": 121.318747
    },
    "address": "上海市松江区",
    "province": "上海市",
    "city": "上海市",
    "area": "松江区",
    "detail": 0,
    "uid": "be898cc8210ef240754ff16b"
}{
    "name": "江川路",
    "location": {
        "lat": 31.001051,
        "lng": 121.383156
    },
    "address": "上海市闵行区",
    "province": "上海市",
    "city": "上海市",
    "area": "闵行区",
    "detail": 0,
    "uid": "533991b949e09ae013293597"
}{
    "name": "东兴公路",
    "location": {
        "lat": 30.97065,
        "lng": 121.338548
    },
    "address": "上海市松江区",
    "province": "上海市",
    "city": "上海市",
    "area": "松江区",
    "detail": 0,
    "uid": "d6f6320396275777c16c1494"
}{
    "name": "车水公路",
    "location": {
        "lat": 30.967315,
        "lng": 121.323384
    },
    "address": "上海市松江区",
    "province": "上海市",
    "city": "上海市",
    "area": "松江区",
    "detail": 0,
    "uid": "00c63bfc28cd251102ec01c2"
}{
    "name": "新桥公路",
    "location": {
        "lat": 30.964846,
        "lng": 121.328337
    },
    "address": "上海市松江区",
    "province": "上海市",
    "city": "上海市",
    "area": "松江区",
    "detail": 0,
    "uid": "957da6ff3ca68ebdda2f28ad"
}{
    "name": "求城路",
    "location": {
        "lat": 30.974189,
        "lng": 121.328596
    },
    "address": "上海市松江区",
    "province": "上海市",
    "city": "上海市",
    "area": "松江区",
    "detail": 0,
    "uid": "2a3e0831fda8805e9022e0dc"
}{
    "name": "大桥公路",
    "location": {
        "lat": 30.967035,
        "lng": 121.319348
    },
    "address": "上海市松江区",
    "province": "上海市",
    "city": "上海市",
    "area": "松江区",
    "detail": 0,
    "uid": "18d6fc3a2e18d696f9f0cbdb"
}{
    "name": "西堆场路",
    "location": {
        "lat": 30.974919,
        "lng": 121.305846
    },
    "address": "上海市松江区",
    "province": "上海市",
    "city": "上海市",
    "area": "松江区",
    "detail": 0,
    "uid": "87a8a1fea9cfa740cb09f022"
}{
    "name": "江川路",
    "location": {
        "lat": 30.999176,
        "lng": 121.376621
    },
    "address": "上海市闵行区",
    "province": "上海市",
    "city": "上海市",
    "area": "闵行区",
    "detail": 0,
    "uid": "533991b949e09ae013293597"
}{
    "name": "东兴公路",
    "location": {
        "lat": 30.9827,
        "lng": 121.337481
    },
    "address": "上海市松江区",
    "province": "上海市",
    "city": "上海市",
    "area": "松江区",
    "detail": 0,
    "uid": "d6f6320396275777c16c1494"
}{
    "name": "东勤公路",
    "location": {
        "lat": 30.977206,
        "lng": 121.363095
    },
    "address": "上海市松江区",
    "province": "上海市",
    "city": "上海市",
    "area": "松江区",
    "detail": 0,
    "uid": "1b6d77e54e2acca33813fd01"
}{
    "name": "西畴路",
    "location": {
        "lat": 30.989075,
        "lng": 121.360742
    },
    "address": "上海市闵行区",
    "province": "上海市",
    "city": "上海市",
    "area": "闵行区",
    "detail": 0,
    "uid": "a0598ac935fbae831c580019"
}{
    "name": "引水公路",
    "location": {
        "lat": 30.986868,
        "lng": 121.328984
    },
    "address": "上海市松江区",
    "province": "上海市",
    "city": "上海市",
    "area": "松江区",
    "detail": 0,
    "uid": "e2ebdae5681fc6473904b1b4"
}{
    "name": "陆家桥",
    "location": {
        "lat": 30.975252,
        "lng": 121.34961
    },
    "address": "上海市松江区",
    "province": "上海市",
    "city": "上海市",
    "area": "松江区",
    "detail": 0,
    "uid": "3571011440a0a7beacee7ab3"
}{
    "name": "荷巷桥路",
    "location": {
        "lat": 30.997761,
        "lng": 121.356547
    },
    "address": "上海市闵行区",
    "province": "上海市",
    "city": "上海市",
    "area": "闵行区",
    "detail": 0,
    "uid": "e65279e913cc58556d476005"
}{
    "name": "费家桥",
    "location": {
        "lat": 30.972896,
        "lng": 121.34992
    },
    "address": "上海市松江区",
    "province": "上海市",
    "city": "上海市",
    "area": "松江区",
    "detail": 0,
    "uid": "e2c675f1e73da856eedfcab0"
}{
    "name": "广场路",
    "location": {
        "lat": 30.998544,
        "lng": 121.342877
    },
    "address": "上海市闵行区",
    "province": "上海市",
    "city": "上海市",
    "area": "闵行区",
    "detail": 0,
    "uid": "8852010db66e3574c8c3db6d"
}{
    "name": "江川路2199弄",
    "location": {
        "lat": 30.991732,
        "lng": 121.354158
    },
    "address": "上海市闵行区",
    "province": "上海市",
    "city": "上海市",
    "area": "闵行区",
    "detail": 0,
    "uid": "1095e55503a5bc5cbd4842eb"
}{
    "name": "千步泾防汛通道桥",
    "location": {
        "lat": 30.981851,
        "lng": 121.366033
    },
    "address": "上海市奉贤区",
    "province": "上海市",
    "city": "上海市",
    "area": "奉贤区",
    "detail": 0,
    "uid": "52625d1195be8a4e2db17e62"
}{
    "name": "西畴路",
    "location": {
        "lat": 30.989075,
        "lng": 121.360742
    },
    "address": "上海市闵行区",
    "province": "上海市",
    "city": "上海市",
    "area": "闵行区",
    "detail": 0,
    "uid": "a0598ac935fbae831c580019"
}{
    "name": "祥云路",
    "location": {
        "lat": 30.991321,
        "lng": 121.374316
    },
    "address": "上海市闵行区",
    "province": "上海市",
    "city": "上海市",
    "area": "闵行区",
    "detail": 0,
    "uid": "d4b7340396275777c06c1457"
}{
    "name": "闵江路",
    "location": {
        "lat": 30.993356,
        "lng": 121.368169
    },
    "address": "上海市闵行区",
    "province": "上海市",
    "city": "上海市",
    "area": "闵行区",
    "detail": 0,
    "uid": "70630e229705ec65d33ce364"
}{
    "name": "荷巷桥路",
    "location": {
        "lat": 30.997761,
        "lng": 121.356547
    },
    "address": "上海市闵行区",
    "province": "上海市",
    "city": "上海市",
    "area": "闵行区",
    "detail": 0,
    "uid": "e65279e913cc58556d476005"
}{
    "name": "新张路",
    "location": {
        "lat": 30.971052,
        "lng": 121.37781
    },
    "address": "上海市奉贤区",
    "province": "上海市",
    "city": "上海市",
    "area": "奉贤区",
    "detail": 0,
    "uid": "a57de207ba85655ecbe33cdc"
}{
    "name": "金泾港桥",
    "location": {
        "lat": 30.976214,
        "lng": 121.377038
    },
    "address": "上海市奉贤区",
    "province": "上海市",
    "city": "上海市",
    "area": "奉贤区",
    "detail": 0,
    "uid": "49367d2b7f7aa865f6c59c8a"
}{
    "name": "东杨路",
    "location": {
        "lat": 30.970475,
        "lng": 121.355367
    },
    "address": "上海市松江区",
    "province": "上海市",
    "city": "上海市",
    "area": "松江区",
    "detail": 0,
    "uid": "985cb3d77101d6ad39e4a601"
}{
    "name": "江川路2199弄",
    "location": {
        "lat": 30.991732,
        "lng": 121.354158
    },
    "address": "上海市闵行区",
    "province": "上海市",
    "city": "上海市",
    "area": "闵行区",
    "detail": 0,
    "uid": "1095e55503a5bc5cbd4842eb"
}{
    "name": "彭江路",
    "location": {
        "lat": 30.99196,
        "lng": 121.36555
    },
    "address": "上海市闵行区",
    "province": "上海市",
    "city": "上海市",
    "area": "闵行区",
    "detail": 0,
    "uid": "b7942b20df4728442ad7ab74"
}{
    "name": "浦卫公路辅路",
    "location": {
        "lat": 30.977371,
        "lng": 121.38973
    },
    "address": "上海市奉贤区",
    "province": "上海市",
    "city": "上海市",
    "area": "奉贤区",
    "detail": 0,
    "uid": "9a15b25c7d51c145374aae0b"
}{
    "name": "闵浦三桥",
    "location": {
        "lat": 30.988162,
        "lng": 121.382762
    },
    "address": "上海市",
    "province": "上海市",
    "city": "上海市",
    "area": "",
    "detail": 0,
    "uid": "9a1fb25c7d51c145374aae0d"
}{
    "name": "祥云路",
    "location": {
        "lat": 30.991321,
        "lng": 121.374316
    },
    "address": "上海市闵行区",
    "province": "上海市",
    "city": "上海市",
    "area": "闵行区",
    "detail": 0,
    "uid": "d4b7340396275777c06c1457"
}{
    "name": "江薛路",
    "location": {
        "lat": 30.997757,
        "lng": 121.378356
    },
    "address": "上海市闵行区",
    "province": "上海市",
    "city": "上海市",
    "area": "闵行区",
    "detail": 0,
    "uid": "ac3337caa35f3ba55d0d0282"
}{
    "name": "北环路",
    "location": {
        "lat": 30.964838,
        "lng": 121.384308
    },
    "address": "上海市奉贤区",
    "province": "上海市",
    "city": "上海市",
    "area": "奉贤区",
    "detail": 0,
    "uid": "f83e940e1f03dea0accb6611"
}{
    "name": "巨潮港桥",
    "location": {
        "lat": 30.983116,
        "lng": 121.382782
    },
    "address": "上海市奉贤区",
    "province": "上海市",
    "city": "上海市",
    "area": "奉贤区",
    "detail": 0,
    "uid": "6bf6fa549b0c105879dbd28f"
}{
    "name": "北耀路",
    "location": {
        "lat": 30.968114,
        "lng": 121.392328
    },
    "address": "上海市奉贤区",
    "province": "上海市",
    "city": "上海市",
    "area": "奉贤区",
    "detail": 0,
    "uid": "7d4da4290c19ca50a2d23094"
}{
    "name": "庄胡路",
    "location": {
        "lat": 30.983949,
        "lng": 121.391159
    },
    "address": "上海市奉贤区",
    "province": "上海市",
    "city": "上海市",
    "area": "奉贤区",
    "detail": 0,
    "uid": "293a5823a31a0b2bfb2213b9"
}{
    "name": "邬桥友谊路",
    "location": {
        "lat": 30.971854,
        "lng": 121.395147
    },
    "address": "上海市奉贤区",
    "province": "上海市",
    "city": "上海市",
    "area": "奉贤区",
    "detail": 0,
    "uid": "d224923bd64eb41cdaeced1f"
}{
    "name": "新张路",
    "location": {
        "lat": 30.971052,
        "lng": 121.37781
    },
    "address": "上海市奉贤区",
    "province": "上海市",
    "city": "上海市",
    "area": "奉贤区",
    "detail": 0,
    "uid": "a57de207ba85655ecbe33cdc"
}{
    "name": "浦耀路",
    "location": {
        "lat": 30.977727,
        "lng": 121.407046
    },
    "address": "上海市奉贤区",
    "province": "上海市",
    "city": "上海市",
    "area": "奉贤区",
    "detail": 0,
    "uid": "7652e7bece4c4917b03c8142"
}{
    "name": "南沙港桥",
    "location": {
        "lat": 30.982967,
        "lng": 121.403103
    },
    "address": "上海市奉贤区",
    "province": "上海市",
    "city": "上海市",
    "area": "奉贤区",
    "detail": 0,
    "uid": "ddc1c4c848093743343a7189"
}{
    "name": "浦秀中心路",
    "location": {
        "lat": 30.973823,
        "lng": 121.415601
    },
    "address": "上海市奉贤区",
    "province": "上海市",
    "city": "上海市",
    "area": "奉贤区",
    "detail": 0,
    "uid": "5e166d2f15f096fb9fec2b96"
}{
    "name": "渔汇路",
    "location": {
        "lat": 30.979974,
        "lng": 121.400302
    },
    "address": "上海市奉贤区",
    "province": "上海市",
    "city": "上海市",
    "area": "奉贤区",
    "detail": 0,
    "uid": "96eaa3ff3ca68ebddb2f28de"
}{
    "name": "安邬路",
    "location": {
        "lat": 30.96597,
        "lng": 121.404767
    },
    "address": "上海市奉贤区",
    "province": "上海市",
    "city": "上海市",
    "area": "奉贤区",
    "detail": 0,
    "uid": "31f95df01eab69ac1a94c6da"
}{
    "name": "安东路",
    "location": {
        "lat": 30.968811,
        "lng": 121.409162
    },
    "address": "上海市奉贤区",
    "province": "上海市",
    "city": "上海市",
    "area": "奉贤区",
    "detail": 0,
    "uid": "82eeb90223e487e1d1ff2348"
}{
    "name": "光辉河桥",
    "location": {
        "lat": 30.987923,
        "lng": 121.41123
    },
    "address": "上海市奉贤区",
    "province": "上海市",
    "city": "上海市",
    "area": "奉贤区",
    "detail": 0,
    "uid": "7d18472d4aed015a5fd4feed"
}{
    "name": "北环路",
    "location": {
        "lat": 30.964838,
        "lng": 121.384308
    },
    "address": "上海市奉贤区",
    "province": "上海市",
    "city": "上海市",
    "area": "奉贤区",
    "detail": 0,
    "uid": "f83e940e1f03dea0accb6611"
}{
    "name": "灯北路",
    "location": {
        "lat": 30.977087,
        "lng": 121.431246
    },
    "address": "上海市奉贤区",
    "province": "上海市",
    "city": "上海市",
    "area": "奉贤区",
    "detail": 0,
    "uid": "3578e129e5f1bd4cf603b8b7"
}{
    "name": "北横路",
    "location": {
        "lat": 30.986898,
        "lng": 121.405211
    },
    "address": "上海市奉贤区",
    "province": "上海市",
    "city": "上海市",
    "area": "奉贤区",
    "detail": 0,
    "uid": "a0359eb9de1f0ace70210b2c"
}{
    "name": "灯北路",
    "location": {
        "lat": 30.977087,
        "lng": 121.431246
    },
    "address": "上海市奉贤区",
    "province": "上海市",
    "city": "上海市",
    "area": "奉贤区",
    "detail": 0,
    "uid": "3578e129e5f1bd4cf603b8b7"
}{
    "name": "灯塔中心路",
    "location": {
        "lat": 30.979683,
        "lng": 121.425915
    },
    "address": "上海市奉贤区",
    "province": "上海市",
    "city": "上海市",
    "area": "奉贤区",
    "detail": 0,
    "uid": "c8c5e21a9040548902ff2ddb"
}{
    "name": "展发路",
    "location": {
        "lat": 30.975884,
        "lng": 121.438699
    },
    "address": "上海市奉贤区",
    "province": "上海市",
    "city": "上海市",
    "area": "奉贤区",
    "detail": 0,
    "uid": "d95d34f710b5a7a510882461"
}{
    "name": "闵浦二桥",
    "location": {
        "lat": 31.000606,
        "lng": 121.436709
    },
    "address": "上海市",
    "province": "上海市",
    "city": "上海市",
    "area": "",
    "detail": 0,
    "uid": "f7ad2ba108f3e266aaf72906"
}{
    "name": "兴中路",
    "location": {
        "lat": 30.993163,
        "lng": 121.434911
    },
    "address": "上海市奉贤区",
    "province": "上海市",
    "city": "上海市",
    "area": "奉贤区",
    "detail": 0,
    "uid": "40cc069dc90588150c0e6bbd"
}{
    "name": "袁家宅路",
    "location": {
        "lat": 30.979841,
        "lng": 121.445565
    },
    "address": "上海市奉贤区",
    "province": "上海市",
    "city": "上海市",
    "area": "奉贤区",
    "detail": 0,
    "uid": "487f3e0458ee9582611c6760"
}{
    "name": "肖塘路",
    "location": {
        "lat": 30.96827,
        "lng": 121.441839
    },
    "address": "上海市奉贤区",
    "province": "上海市",
    "city": "上海市",
    "area": "奉贤区",
    "detail": 0,
    "uid": "7dfdf8e5a59333554351c001"
}{
    "name": "鸿程路",
    "location": {
        "lat": 30.992768,
        "lng": 121.430805
    },
    "address": "上海市奉贤区",
    "province": "上海市",
    "city": "上海市",
    "area": "奉贤区",
    "detail": 0,
    "uid": "705a7f1195be8a4e2db17e0a"
}{
    "name": "马家宅路",
    "location": {
        "lat": 30.973344,
        "lng": 121.438218
    },
    "address": "上海市奉贤区",
    "province": "上海市",
    "city": "上海市",
    "area": "奉贤区",
    "detail": 0,
    "uid": "2e451e2863e9afa5fadc8513"
}{
    "name": "展发二支路",
    "location": {
        "lat": 30.976648,
        "lng": 121.441608
    },
    "address": "上海市奉贤区",
    "province": "上海市",
    "city": "上海市",
    "area": "奉贤区",
    "detail": 0,
    "uid": "c0858316a23ff2527af79622"
}{
    "name": "郭家村桥",
    "location": {
        "lat": 30.981877,
        "lng": 121.4447
    },
    "address": "上海市奉贤区",
    "province": "上海市",
    "city": "上海市",
    "area": "奉贤区",
    "detail": 0,
    "uid": "4eaf63856514af4a28201ae0"
}{
    "name": "港和路",
    "location": {
        "lat": 30.982822,
        "lng": 121.448791
    },
    "address": "上海市奉贤区",
    "province": "上海市",
    "city": "上海市",
    "area": "奉贤区",
    "detail": 0,
    "uid": "2bad6b13290410696e3e1bd8"
}{
    "name": "闵浦二桥",
    "location": {
        "lat": 31.000606,
        "lng": 121.436709
    },
    "address": "上海市",
    "province": "上海市",
    "city": "上海市",
    "area": "",
    "detail": 0,
    "uid": "f7ad2ba108f3e266aaf72906"
}{
    "name": "美宝路",
    "location": {
        "lat": 30.991793,
        "lng": 121.459368
    },
    "address": "上海市奉贤区",
    "province": "上海市",
    "city": "上海市",
    "area": "奉贤区",
    "detail": 0,
    "uid": "74e4431195be8a4e2cb17e98"
}{
    "name": "扶港路",
    "location": {
        "lat": 30.983873,
        "lng": 121.454117
    },
    "address": "上海市奉贤区",
    "province": "上海市",
    "city": "上海市",
    "area": "奉贤区",
    "detail": 0,
    "uid": "daa61942100f17f061180906"
}{
    "name": "肖玻路",
    "location": {
        "lat": 30.97619,
        "lng": 121.449396
    },
    "address": "上海市奉贤区",
    "province": "上海市",
    "city": "上海市",
    "area": "奉贤区",
    "detail": 0,
    "uid": "3296c5188c80496886330422"
}{
    "name": "展发二支路",
    "location": {
        "lat": 30.976648,
        "lng": 121.441608
    },
    "address": "上海市奉贤区",
    "province": "上海市",
    "city": "上海市",
    "area": "奉贤区",
    "detail": 0,
    "uid": "c0858316a23ff2527af79622"
}{
    "name": "袁家宅路",
    "location": {
        "lat": 30.979841,
        "lng": 121.445565
    },
    "address": "上海市奉贤区",
    "province": "上海市",
    "city": "上海市",
    "area": "奉贤区",
    "detail": 0,
    "uid": "487f3e0458ee9582611c6760"
}{
    "name": "奉金路",
    "location": {
        "lat": 30.978586,
        "lng": 121.44859
    },
    "address": "上海市奉贤区",
    "province": "上海市",
    "city": "上海市",
    "area": "奉贤区",
    "detail": 0,
    "uid": "2573ded6f7fadd4ea4da3906"
}{
    "name": "沪杭公路辅路",
    "location": {
        "lat": 30.997225,
        "lng": 121.438154
    },
    "address": "上海市奉贤区",
    "province": "上海市",
    "city": "上海市",
    "area": "奉贤区",
    "detail": 0,
    "uid": "5bb71fb221eb29c1c5f02530"
}{
    "name": "肖梅路",
    "location": {
        "lat": 30.983329,
        "lng": 121.467879
    },
    "address": "上海市奉贤区",
    "province": "上海市",
    "city": "上海市",
    "area": "奉贤区",
    "detail": 0,
    "uid": "873dda1cd240c064210262e5"
}{
    "name": "美宝路",
    "location": {
        "lat": 30.991155,
        "lng": 121.457258
    },
    "address": "上海市奉贤区",
    "province": "上海市",
    "city": "上海市",
    "area": "奉贤区",
    "detail": 0,
    "uid": "74e4431195be8a4e2cb17e98"
}{
    "name": "奉金路",
    "location": {
        "lat": 30.978172,
        "lng": 121.44748
    },
    "address": "上海市奉贤区",
    "province": "上海市",
    "city": "上海市",
    "area": "奉贤区",
    "detail": 0,
    "uid": "2573ded6f7fadd4ea4da3906"
}{
    "name": "叶梅路",
    "location": {
        "lat": 30.980377,
        "lng": 121.472725
    },
    "address": "上海市奉贤区",
    "province": "上海市",
    "city": "上海市",
    "area": "奉贤区",
    "detail": 0,
    "uid": "c6218eb90c0014f8b7147f23"
}{
    "name": "亿松路",
    "location": {
        "lat": 30.986486,
        "lng": 121.457272
    },
    "address": "上海市奉贤区",
    "province": "上海市",
    "city": "上海市",
    "area": "奉贤区",
    "detail": 0,
    "uid": "bdeb90b091be753e06026f23"
}{
    "name": "金大路",
    "location": {
        "lat": 30.985715,
        "lng": 121.4623
    },
    "address": "上海市奉贤区",
    "province": "上海市",
    "city": "上海市",
    "area": "奉贤区",
    "detail": 0,
    "uid": "e22f21a07af2be0baf080ffc"
}{
    "name": "扶港路",
    "location": {
        "lat": 30.978002,
        "lng": 121.456092
    },
    "address": "上海市奉贤区",
    "province": "上海市",
    "city": "上海市",
    "area": "奉贤区",
    "detail": 0,
    "uid": "daa61942100f17f061180906"
}{
    "name": "汇丰北路",
    "location": {
        "lat": 30.976755,
        "lng": 121.482683
    },
    "address": "上海市奉贤区",
    "province": "上海市",
    "city": "上海市",
    "area": "奉贤区",
    "detail": 0,
    "uid": "38bbd63a16104a0cb54f5486"
}{
    "name": "华松路",
    "location": {
        "lat": 30.990372,
        "lng": 121.460304
    },
    "address": "上海市奉贤区",
    "province": "上海市",
    "city": "上海市",
    "area": "奉贤区",
    "detail": 0,
    "uid": "aef2d669d2a493b92a06ced9"
}{
    "name": "益民中心路",
    "location": {
        "lat": 30.989258,
        "lng": 121.490812
    },
    "address": "上海市奉贤区",
    "province": "上海市",
    "city": "上海市",
    "area": "奉贤区",
    "detail": 0,
    "uid": "ab4d1cf09501fab8593ac8e2"
}{
    "name": "宏伟河桥",
    "location": {
        "lat": 30.981988,
        "lng": 121.487482
    },
    "address": "上海市奉贤区",
    "province": "上海市",
    "city": "上海市",
    "area": "奉贤区",
    "detail": 0,
    "uid": "5d2c412d9f0580f47bb55c1e"
}{
    "name": "新民港路",
    "location": {
        "lat": 30.99217,
        "lng": 121.479877
    },
    "address": "上海市奉贤区",
    "province": "上海市",
    "city": "上海市",
    "area": "奉贤区",
    "detail": 0,
    "uid": "86007ae37526799f48fd3fcb"
}{
    "name": "岚丰路",
    "location": {
        "lat": 30.973192,
        "lng": 121.489877
    },
    "address": "上海市奉贤区",
    "province": "上海市",
    "city": "上海市",
    "area": "奉贤区",
    "detail": 0,
    "uid": "36c35723a31a0b2bfa221326"
}{
    "name": "嘉园路",
    "location": {
        "lat": 30.97371,
        "lng": 121.499798
    },
    "address": "上海市奉贤区",
    "province": "上海市",
    "city": "上海市",
    "area": "奉贤区",
    "detail": 0,
    "uid": "57d389026a2bea753617dce1"
}{
    "name": "北横河桥",
    "location": {
        "lat": 30.981825,
        "lng": 121.482204
    },
    "address": "上海市奉贤区",
    "province": "上海市",
    "city": "上海市",
    "area": "奉贤区",
    "detail": 0,
    "uid": "5819f63a16104a0cb44f5460"
}{
    "name": "汇丰北路",
    "location": {
        "lat": 30.975769,
        "lng": 121.474949
    },
    "address": "上海市奉贤区",
    "province": "上海市",
    "city": "上海市",
    "area": "奉贤区",
    "detail": 0,
    "uid": "38bbd63a16104a0cb54f5486"
}{
    "name": "博丰路",
    "location": {
        "lat": 30.969417,
        "lng": 121.500536
    },
    "address": "上海市奉贤区",
    "province": "上海市",
    "city": "上海市",
    "area": "奉贤区",
    "detail": 0,
    "uid": "c43f3d2fc8e2ee51ff0eb00b"
}{
    "name": "丽丰路",
    "location": {
        "lat": 30.978014,
        "lng": 121.476124
    },
    "address": "上海市奉贤区",
    "province": "上海市",
    "city": "上海市",
    "area": "奉贤区",
    "detail": 0,
    "uid": "f97dee4bcf598975e8e582b7"
}{
    "name": "新民路",
    "location": {
        "lat": 30.987072,
        "lng": 121.491623
    },
    "address": "上海市奉贤区",
    "province": "上海市",
    "city": "上海市",
    "area": "奉贤区",
    "detail": 0,
    "uid": "d7ed63f4963d1f271fe99998"
}{
    "name": "庆园路",
    "location": {
        "lat": 30.964819,
        "lng": 121.496121
    },
    "address": "上海市奉贤区",
    "province": "上海市",
    "city": "上海市",
    "area": "奉贤区",
    "detail": 0,
    "uid": "d436ba0a8a3d3ac08adb732b"
}{
    "name": "金碧路",
    "location": {
        "lat": 30.973011,
        "lng": 121.514135
    },
    "address": "上海市",
    "province": "上海市",
    "city": "上海市",
    "area": "",
    "detail": 0,
    "uid": "c945e1dbcd6e54eaaaf0cd04"
}{
    "name": "金汇港桥",
    "location": {
        "lat": 30.982806,
        "lng": 121.503328
    },
    "address": "上海市奉贤区",
    "province": "上海市",
    "city": "上海市",
    "area": "奉贤区",
    "detail": 0,
    "uid": "9715a7c935fbae831c5800d5"
}{
    "name": "嘉园路",
    "location": {
        "lat": 30.97371,
        "lng": 121.499798
    },
    "address": "上海市奉贤区",
    "province": "上海市",
    "city": "上海市",
    "area": "奉贤区",
    "detail": 0,
    "uid": "57d389026a2bea753617dce1"
}{
    "name": "金汇中街",
    "location": {
        "lat": 30.993978,
        "lng": 121.50772
    },
    "address": "上海市奉贤区",
    "province": "上海市",
    "city": "上海市",
    "area": "奉贤区",
    "detail": 0,
    "uid": "8e53b0b9de1f0ace70210b0e"
}{
    "name": "金汇工业路",
    "location": {
        "lat": 30.996952,
        "lng": 121.513053
    },
    "address": "上海市奉贤区",
    "province": "上海市",
    "city": "上海市",
    "area": "奉贤区",
    "detail": 0,
    "uid": "60249bd77101d6ad39e4a6d9"
}{
    "name": "贤浦路",
    "location": {
        "lat": 30.979429,
        "lng": 121.516845
    },
    "address": "上海市奉贤区",
    "province": "上海市",
    "city": "上海市",
    "area": "奉贤区",
    "detail": 0,
    "uid": "03877afadf6f7773a9175acc"
}{
    "name": "北行路",
    "location": {
        "lat": 30.976404,
        "lng": 121.52492
    },
    "address": "上海市奉贤区",
    "province": "上海市",
    "city": "上海市",
    "area": "奉贤区",
    "detail": 0,
    "uid": "d232923bd64eb41cdaeced6d"
}{
    "name": "博丰路",
    "location": {
        "lat": 30.969417,
        "lng": 121.500536
    },
    "address": "上海市奉贤区",
    "province": "上海市",
    "city": "上海市",
    "area": "奉贤区",
    "detail": 0,
    "uid": "c43f3d2fc8e2ee51ff0eb00b"
}{
    "name": "庵港桥",
    "location": {
        "lat": 30.985298,
        "lng": 121.522352
    },
    "address": "上海市奉贤区",
    "province": "上海市",
    "city": "上海市",
    "area": "奉贤区",
    "detail": 0,
    "uid": "a30558e486e315b324e0a0f7"
}{
    "name": "汇二路",
    "location": {
        "lat": 30.978888,
        "lng": 121.52198
    },
    "address": "上海市奉贤区",
    "province": "上海市",
    "city": "上海市",
    "area": "奉贤区",
    "detail": 0,
    "uid": "1ff284624525bbe9c4f50de2"
}{
    "name": "新强路",
    "location": {
        "lat": 30.976167,
        "lng": 121.532799
    },
    "address": "上海市奉贤区",
    "province": "上海市",
    "city": "上海市",
    "area": "奉贤区",
    "detail": 0,
    "uid": "a97f490c884d0b59b120a8d9"
}{
    "name": "北行路",
    "location": {
        "lat": 30.976404,
        "lng": 121.52492
    },
    "address": "上海市奉贤区",
    "province": "上海市",
    "city": "上海市",
    "area": "奉贤区",
    "detail": 0,
    "uid": "d232923bd64eb41cdaeced6d"
}{
    "name": "金碧路",
    "location": {
        "lat": 30.973011,
        "lng": 121.514135
    },
    "address": "上海市",
    "province": "上海市",
    "city": "上海市",
    "area": "",
    "detail": 0,
    "uid": "c945e1dbcd6e54eaaaf0cd04"
}{
    "name": "贤浦路",
    "location": {
        "lat": 30.979429,
        "lng": 121.516845
    },
    "address": "上海市奉贤区",
    "province": "上海市",
    "city": "上海市",
    "area": "奉贤区",
    "detail": 0,
    "uid": "03877afadf6f7773a9175acc"
}{
    "name": "汇二路",
    "location": {
        "lat": 30.978888,
        "lng": 121.52198
    },
    "address": "上海市奉贤区",
    "province": "上海市",
    "city": "上海市",
    "area": "奉贤区",
    "detail": 0,
    "uid": "1ff284624525bbe9c4f50de2"
}{
    "name": "南行港路",
    "location": {
        "lat": 30.971936,
        "lng": 121.497802
    },
    "address": "上海市奉贤区",
    "province": "上海市",
    "city": "上海市",
    "area": "奉贤区",
    "detail": 0,
    "uid": "8da7af5c7d51c145364aae95"
}{
    "name": "金建路",
    "location": {
        "lat": 30.982228,
        "lng": 121.517083
    },
    "address": "上海市奉贤区",
    "province": "上海市",
    "city": "上海市",
    "area": "奉贤区",
    "detail": 0,
    "uid": "6999b969b33af18a08a8d444"
}{
    "name": "汇中路",
    "location": {
        "lat": 30.994324,
        "lng": 121.507221
    },
    "address": "上海市奉贤区",
    "province": "上海市",
    "city": "上海市",
    "area": "奉贤区",
    "detail": 0,
    "uid": "d0202f5565ebb27fcc04ef19"
}{
    "name": "新强港桥",
    "location": {
        "lat": 30.981811,
        "lng": 121.53266
    },
    "address": "上海市奉贤区",
    "province": "上海市",
    "city": "上海市",
    "area": "奉贤区",
    "detail": 0,
    "uid": "894b012619c0964d9b0050f7"
}{
    "name": "南行路",
    "location": {
        "lat": 30.969244,
        "lng": 121.514686
    },
    "address": "上海市奉贤区",
    "province": "上海市",
    "city": "上海市",
    "area": "奉贤区",
    "detail": 0,
    "uid": "9a1961f5384596412fb908a8"
}{
    "name": "沿浦公路",
    "location": {
        "lat": 30.997501,
        "lng": 121.544447
    },
    "address": "上海市",
    "province": "上海市",
    "city": "上海市",
    "area": "",
    "detail": 0,
    "uid": "5db2c0bece4c4917b03c8162"
}{
    "name": "泰西路",
    "location": {
        "lat": 30.980669,
        "lng": 121.560185
    },
    "address": "上海市奉贤区",
    "province": "上海市",
    "city": "上海市",
    "area": "奉贤区",
    "detail": 0,
    "uid": "a0fc4d856514af4a29201a56"
}{
    "name": "新强路",
    "location": {
        "lat": 30.976167,
        "lng": 121.532799
    },
    "address": "上海市奉贤区",
    "province": "上海市",
    "city": "上海市",
    "area": "奉贤区",
    "detail": 0,
    "uid": "a97f490c884d0b59b120a8d9"
}{
    "name": "汇中路",
    "location": {
        "lat": 30.994324,
        "lng": 121.507221
    },
    "address": "上海市奉贤区",
    "province": "上海市",
    "city": "上海市",
    "area": "奉贤区",
    "detail": 0,
    "uid": "d0202f5565ebb27fcc04ef19"
}{
    "name": "西星港路",
    "location": {
        "lat": 30.982345,
        "lng": 121.55432
    },
    "address": "上海市奉贤区",
    "province": "上海市",
    "city": "上海市",
    "area": "奉贤区",
    "detail": 0,
    "uid": "c9ed3642100f17f0611809cb"
}{
    "name": "大叶公路与日新路交叉口",
    "location": {
        "lat": 30.982835,
        "lng": 121.545224
    },
    "address": "上海市奉贤区",
    "province": "上海市",
    "city": "上海市",
    "area": "奉贤区",
    "detail": 1,
    "uid": "f902057c334c88d45e0d02a3"
}{
    "name": "明星路",
    "location": {
        "lat": 30.991227,
        "lng": 121.549023
    },
    "address": "上海市奉贤区",
    "province": "上海市",
    "city": "上海市",
    "area": "奉贤区",
    "detail": 0,
    "uid": "0bc34d184009014dfb42b2da"
}{
    "name": "陆厍二组排河桥",
    "location": {
        "lat": 30.968978,
        "lng": 121.555193
    },
    "address": "上海市奉贤区",
    "province": "上海市",
    "city": "上海市",
    "area": "奉贤区",
    "detail": 0,
    "uid": "12f4fffca993829689b988f4"
}{
    "name": "西新港桥",
    "location": {
        "lat": 30.983948,
        "lng": 121.554228
    },
    "address": "上海市奉贤区",
    "province": "上海市",
    "city": "上海市",
    "area": "奉贤区",
    "detail": 0,
    "uid": "9ee6ad94b51b7a184007c1f7"
}{
    "name": "康强路",
    "location": {
        "lat": 30.973967,
        "lng": 121.554789
    },
    "address": "上海市奉贤区",
    "province": "上海市",
    "city": "上海市",
    "area": "奉贤区",
    "detail": 0,
    "uid": "dbf6d640ae0a139ecf06a48a"
}{
    "name": "泰叶路",
    "location": {
        "lat": 30.98491,
        "lng": 121.567669
    },
    "address": "上海市奉贤区",
    "province": "上海市",
    "city": "上海市",
    "area": "奉贤区",
    "detail": 0,
    "uid": "29e389228cf08f16d5851fcc"
}{
    "name": "泰青公路",
    "location": {
        "lat": 30.959326,
        "lng": 121.575964
    },
    "address": "上海市奉贤区",
    "province": "上海市",
    "city": "上海市",
    "area": "奉贤区",
    "detail": 0,
    "uid": "1881dae2781c4681f70e771a"
}{
    "name": "振泰路",
    "location": {
        "lat": 30.987012,
        "lng": 121.569423
    },
    "address": "上海市奉贤区",
    "province": "上海市",
    "city": "上海市",
    "area": "奉贤区",
    "detail": 0,
    "uid": "dfc8293c56e2c864f5eafc4a"
}{
    "name": "泰西路",
    "location": {
        "lat": 30.980669,
        "lng": 121.560185
    },
    "address": "上海市奉贤区",
    "province": "上海市",
    "city": "上海市",
    "area": "奉贤区",
    "detail": 0,
    "uid": "a0fc4d856514af4a29201a56"
}{
    "name": "大昌路",
    "location": {
        "lat": 30.986753,
        "lng": 121.569467
    },
    "address": "上海市奉贤区",
    "province": "上海市",
    "city": "上海市",
    "area": "奉贤区",
    "detail": 0,
    "uid": "3006af3abc8eb39234b06cff"
}{
    "name": "大昌南路",
    "location": {
        "lat": 30.985764,
        "lng": 121.569611
    },
    "address": "上海市奉贤区",
    "province": "上海市",
    "city": "上海市",
    "area": "奉贤区",
    "detail": 0,
    "uid": "84080d0db66e3574c8c3dbdb"
}{
    "name": "沿浦公路",
    "location": {
        "lat": 30.997501,
        "lng": 121.544447
    },
    "address": "上海市",
    "province": "上海市",
    "city": "上海市",
    "area": "",
    "detail": 0,
    "uid": "5db2c0bece4c4917b03c8162"
}{
    "name": "明星路",
    "location": {
        "lat": 30.991227,
        "lng": 121.549023
    },
    "address": "上海市奉贤区",
    "province": "上海市",
    "city": "上海市",
    "area": "奉贤区",
    "detail": 0,
    "uid": "0bc34d184009014dfb42b2da"
}{
    "name": "新建路",
    "location": {
        "lat": 30.989241,
        "lng": 121.569889
    },
    "address": "上海市奉贤区",
    "province": "上海市",
    "city": "上海市",
    "area": "奉贤区",
    "detail": 0,
    "uid": "3f6ec62139342d808bfc0698"
}{
    "name": "汇泰路",
    "location": {
        "lat": 30.992619,
        "lng": 121.604855
    },
    "address": "上海市奉贤区",
    "province": "上海市",
    "city": "上海市",
    "area": "奉贤区",
    "detail": 0,
    "uid": "08fe5f3c98d5a0218b2fb592"
}{
    "name": "大涨泾桥",
    "location": {
        "lat": 30.985355,
        "lng": 121.245149
    },
    "address": "上海市松江区",
    "province": "上海市",
    "city": "上海市",
    "area": "松江区",
    "detail": 0,
    "uid": "4d94a3b949e09ae012293502"
}{
    "name": "普照路",
    "location": {
        "lat": 31.00807,
        "lng": 121.246644
    },
    "address": "上海市松江区",
    "province": "上海市",
    "city": "上海市",
    "area": "松江区",
    "detail": 0,
    "uid": "7567134cf5cb2cfcc236444e"
}{
    "name": "金玉路",
    "location": {
        "lat": 31.000628,
        "lng": 121.218954
    },
    "address": "上海市松江区",
    "province": "上海市",
    "city": "上海市",
    "area": "松江区",
    "detail": 0,
    "uid": "bd042695f02890440869d9b8"
}{
    "name": "松汇中路",
    "location": {
        "lat": 31.009925,
        "lng": 121.236046
    },
    "address": "上海市松江区",
    "province": "上海市",
    "city": "上海市",
    "area": "松江区",
    "detail": 0,
    "uid": "58e497f55515957842afe61a"
}{
    "name": "谷阳南路",
    "location": {
        "lat": 31.00889,
        "lng": 121.243625
    },
    "address": "上海市松江区",
    "province": "上海市",
    "city": "上海市",
    "area": "松江区",
    "detail": 0,
    "uid": "74aea002209a4f4bb05c6a88"
}{
    "name": "袜子弄",
    "location": {
        "lat": 31.017027,
        "lng": 121.248152
    },
    "address": "上海市松江区",
    "province": "上海市",
    "city": "上海市",
    "area": "松江区",
    "detail": 0,
    "uid": "9169631bc5f0d35717a19001"
}{
    "name": "中山中路",
    "location": {
        "lat": 31.012664,
        "lng": 121.235541
    },
    "address": "上海市松江区",
    "province": "上海市",
    "city": "上海市",
    "area": "松江区",
    "detail": 0,
    "uid": "599979155551fea63686f49d"
}{
    "name": "富强路",
    "location": {
        "lat": 30.999354,
        "lng": 121.239589
    },
    "address": "上海市松江区",
    "province": "上海市",
    "city": "上海市",
    "area": "松江区",
    "detail": 0,
    "uid": "ca3ce41a9040548903ff2d92"
}{
    "name": "梅园路",
    "location": {
        "lat": 31.002957,
        "lng": 121.243251
    },
    "address": "上海市松江区",
    "province": "上海市",
    "city": "上海市",
    "area": "松江区",
    "detail": 0,
    "uid": "e0231f42100f17f060180985"
}{
    "name": "松江环城路",
    "location": {
        "lat": 31.013141,
        "lng": 121.262122
    },
    "address": "上海市松江区",
    "province": "上海市",
    "city": "上海市",
    "area": "松江区",
    "detail": 0,
    "uid": "61727356470b0e033210af22"
}{
    "name": "申牛路",
    "location": {
        "lat": 31.007634,
        "lng": 121.265671
    },
    "address": "上海市松江区",
    "province": "上海市",
    "city": "上海市",
    "area": "松江区",
    "detail": 0,
    "uid": "35d014f1819df2b360685814"
}{
    "name": "联梅路",
    "location": {
        "lat": 30.996865,
        "lng": 121.274742
    },
    "address": "上海市松江区",
    "province": "上海市",
    "city": "上海市",
    "area": "松江区",
    "detail": 0,
    "uid": "83c589e6fbe5fe527fc876de"
}{
    "name": "香亭路",
    "location": {
        "lat": 31.004295,
        "lng": 121.280347
    },
    "address": "上海市松江区",
    "province": "上海市",
    "city": "上海市",
    "area": "松江区",
    "detail": 0,
    "uid": "06e6a58935dc0df92fb96d8f"
}{
    "name": "南乐路",
    "location": {
        "lat": 30.987602,
        "lng": 121.271956
    },
    "address": "上海市松江区",
    "province": "上海市",
    "city": "上海市",
    "area": "松江区",
    "detail": 0,
    "uid": "7b5f5e6c772eccf023f01710"
}{
    "name": "松江环城路",
    "location": {
        "lat": 31.013141,
        "lng": 121.262122
    },
    "address": "上海市松江区",
    "province": "上海市",
    "city": "上海市",
    "area": "松江区",
    "detail": 0,
    "uid": "61727356470b0e033210af22"
}{
    "name": "荣福路",
    "location": {
        "lat": 30.998966,
        "lng": 121.276968
    },
    "address": "上海市松江区",
    "province": "上海市",
    "city": "上海市",
    "area": "松江区",
    "detail": 0,
    "uid": "70697f1195be8a4e2db17e17"
}{
    "name": "环城路",
    "location": {
        "lat": 31.016498,
        "lng": 121.258236
    },
    "address": "上海市松江区",
    "province": "上海市",
    "city": "上海市",
    "area": "松江区",
    "detail": 0,
    "uid": "e9b9890d95d0f74feee4a5e9"
}{
    "name": "中山东路",
    "location": {
        "lat": 31.017731,
        "lng": 121.272282
    },
    "address": "上海市松江区",
    "province": "上海市",
    "city": "上海市",
    "area": "松江区",
    "detail": 0,
    "uid": "707cb6b9f3703f4b9e9d68bf"
}{
    "name": "松汇东路",
    "location": {
        "lat": 31.008355,
        "lng": 121.253608
    },
    "address": "上海市松江区",
    "province": "上海市",
    "city": "上海市",
    "area": "松江区",
    "detail": 0,
    "uid": "c71a3d1d238530bcea12e41a"
}{
    "name": "官联公路",
    "location": {
        "lat": 30.989432,
        "lng": 121.265813
    },
    "address": "上海市松江区",
    "province": "上海市",
    "city": "上海市",
    "area": "松江区",
    "detail": 0,
    "uid": "bdb683b9de1f0ace71210bad"
}{
    "name": "泖泾港桥",
    "location": {
        "lat": 31.001553,
        "lng": 121.286581
    },
    "address": "上海市松江区",
    "province": "上海市",
    "city": "上海市",
    "area": "松江区",
    "detail": 0,
    "uid": "55e036ecaf8ffcb944572606"
}{
    "name": "北松公路",
    "location": {
        "lat": 31.00799,
        "lng": 121.266601
    },
    "address": "上海市",
    "province": "上海市",
    "city": "上海市",
    "area": "",
    "detail": 0,
    "uid": "4e5343ec3431f54d057ce8fa"
}{
    "name": "香泖路",
    "location": {
        "lat": 31.003143,
        "lng": 121.288413
    },
    "address": "上海市松江区",
    "province": "上海市",
    "city": "上海市",
    "area": "松江区",
    "detail": 0,
    "uid": "fbd127a108f3e266aaf72922"
}{
    "name": "泖亭路",
    "location": {
        "lat": 31.001779,
        "lng": 121.295476
    },
    "address": "上海市松江区",
    "province": "上海市",
    "city": "上海市",
    "area": "松江区",
    "detail": 0,
    "uid": "b16355e37526799f48fd3f64"
}{
    "name": "南乐路",
    "location": {
        "lat": 30.987602,
        "lng": 121.271956
    },
    "address": "上海市松江区",
    "province": "上海市",
    "city": "上海市",
    "area": "松江区",
    "detail": 0,
    "uid": "7b5f5e6c772eccf023f01710"
}{
    "name": "香泾路",
    "location": {
        "lat": 30.99513,
        "lng": 121.295629
    },
    "address": "上海市松江区",
    "province": "上海市",
    "city": "上海市",
    "area": "松江区",
    "detail": 0,
    "uid": "abd900ecaf8ffcb94457261e"
}{
    "name": "香闵路",
    "location": {
        "lat": 31.000662,
        "lng": 121.300062
    },
    "address": "上海市松江区",
    "province": "上海市",
    "city": "上海市",
    "area": "松江区",
    "detail": 0,
    "uid": "681be3af0610a96b2802e1de"
}{
    "name": "荣福路",
    "location": {
        "lat": 30.998966,
        "lng": 121.276968
    },
    "address": "上海市松江区",
    "province": "上海市",
    "city": "上海市",
    "area": "松江区",
    "detail": 0,
    "uid": "70697f1195be8a4e2db17e17"
}{
    "name": "车阳路",
    "location": {
        "lat": 30.992367,
        "lng": 121.27065
    },
    "address": "上海市松江区",
    "province": "上海市",
    "city": "上海市",
    "area": "松江区",
    "detail": 0,
    "uid": "4d235f42b45bfb1ff80caddb"
}{
    "name": "欣浪路",
    "location": {
        "lat": 31.001629,
        "lng": 121.283991
    },
    "address": "上海市松江区",
    "province": "上海市",
    "city": "上海市",
    "area": "松江区",
    "detail": 0,
    "uid": "f634dbc848093743353a7122"
}{
    "name": "车亭公路",
    "location": {
        "lat": 30.995888,
        "lng": 121.311675
    },
    "address": "上海市",
    "province": "上海市",
    "city": "上海市",
    "area": "",
    "detail": 0,
    "uid": "2e2d64223da7fcbc87420e02"
}{
    "name": "北闵路",
    "location": {
        "lat": 31.008875,
        "lng": 121.306202
    },
    "address": "上海市松江区",
    "province": "上海市",
    "city": "上海市",
    "area": "松江区",
    "detail": 0,
    "uid": "a496ec69d2a493b92a06ce3d"
}{
    "name": "香车路",
    "location": {
        "lat": 31.007178,
        "lng": 121.29893
    },
    "address": "上海市松江区",
    "province": "上海市",
    "city": "上海市",
    "area": "松江区",
    "detail": 0,
    "uid": "da6e7a13290410696f3e1b9e"
}{
    "name": "北松公路",
    "location": {
        "lat": 31.00799,
        "lng": 121.266601
    },
    "address": "上海市",
    "province": "上海市",
    "city": "上海市",
    "area": "",
    "detail": 0,
    "uid": "4e5343ec3431f54d057ce8fa"
}{
    "name": "香闵路",
    "location": {
        "lat": 31.000662,
        "lng": 121.300062
    },
    "address": "上海市松江区",
    "province": "上海市",
    "city": "上海市",
    "area": "松江区",
    "detail": 0,
    "uid": "681be3af0610a96b2802e1de"
}{
    "name": "车阳路",
    "location": {
        "lat": 30.992367,
        "lng": 121.27065
    },
    "address": "上海市松江区",
    "province": "上海市",
    "city": "上海市",
    "area": "松江区",
    "detail": 0,
    "uid": "4d235f42b45bfb1ff80caddb"
}{
    "name": "车业路",
    "location": {
        "lat": 31.009471,
        "lng": 121.308978
    },
    "address": "上海市松江区",
    "province": "上海市",
    "city": "上海市",
    "area": "松江区",
    "detail": 0,
    "uid": "a70d310891be585133870a02"
}{
    "name": "车峰路",
    "location": {
        "lat": 31.019446,
        "lng": 121.326476
    },
    "address": "上海市松江区",
    "province": "上海市",
    "city": "上海市",
    "area": "松江区",
    "detail": 0,
    "uid": "edf6bdf04a24255432621202"
}{
    "name": "泖亭路",
    "location": {
        "lat": 31.001779,
        "lng": 121.295476
    },
    "address": "上海市松江区",
    "province": "上海市",
    "city": "上海市",
    "area": "松江区",
    "detail": 0,
    "uid": "b16355e37526799f48fd3f64"
}{
    "name": "香泾路",
    "location": {
        "lat": 30.99513,
        "lng": 121.295629
    },
    "address": "上海市松江区",
    "province": "上海市",
    "city": "上海市",
    "area": "松江区",
    "detail": 0,
    "uid": "abd900ecaf8ffcb94457261e"
}{
    "name": "车峰路",
    "location": {
        "lat": 31.010942,
        "lng": 121.325641
    },
    "address": "上海市松江区",
    "province": "上海市",
    "city": "上海市",
    "area": "松江区",
    "detail": 0,
    "uid": "edf6bdf04a24255432621202"
}{
    "name": "车亭公路",
    "location": {
        "lat": 31.003474,
        "lng": 121.311643
    },
    "address": "上海市",
    "province": "上海市",
    "city": "上海市",
    "area": "",
    "detail": 0,
    "uid": "2e2d64223da7fcbc87420e02"
}{
    "name": "江川路",
    "location": {
        "lat": 31.001051,
        "lng": 121.383156
    },
    "address": "上海市闵行区",
    "province": "上海市",
    "city": "上海市",
    "area": "闵行区",
    "detail": 0,
    "uid": "533991b949e09ae013293597"
}{
    "name": "影佳路",
    "location": {
        "lat": 31.013919,
        "lng": 121.314636
    },
    "address": "上海市松江区",
    "province": "上海市",
    "city": "上海市",
    "area": "松江区",
    "detail": 0,
    "uid": "df596bb99cf7cc6a1c1d1163"
}{
    "name": "汇北支路",
    "location": {
        "lat": 31.003106,
        "lng": 121.323781
    },
    "address": "上海市松江区",
    "province": "上海市",
    "city": "上海市",
    "area": "松江区",
    "detail": 0,
    "uid": "dc0354b99cf7cc6a1c1d11d9"
}{
    "name": "车峰公路三二五弄",
    "location": {
        "lat": 31.01421,
        "lng": 121.327142
    },
    "address": "上海市松江区",
    "province": "上海市",
    "city": "上海市",
    "area": "松江区",
    "detail": 0,
    "uid": "0c0d27fc28cd251103ec01b7"
}{
    "name": "影视路",
    "location": {
        "lat": 31.019612,
        "lng": 121.322493
    },
    "address": "上海市松江区",
    "province": "上海市",
    "city": "上海市",
    "area": "松江区",
    "detail": 0,
    "uid": "7fb7a00444453215c356aca9"
}{
    "name": "西小浜桥",
    "location": {
        "lat": 31.005879,
        "lng": 121.328879
    },
    "address": "上海市松江区",
    "province": "上海市",
    "city": "上海市",
    "area": "松江区",
    "detail": 0,
    "uid": "6f2008a86ef8036b32f71db7"
}{
    "name": "引水公路",
    "location": {
        "lat": 30.985859,
        "lng": 121.327896
    },
    "address": "上海市松江区",
    "province": "上海市",
    "city": "上海市",
    "area": "松江区",
    "detail": 0,
    "uid": "e2ebdae5681fc6473904b1b4"
}{
    "name": "高桥村俞塘",
    "location": {
        "lat": 31.00835,
        "lng": 121.317298
    },
    "address": "上海市松江区",
    "province": "上海市",
    "city": "上海市",
    "area": "松江区",
    "detail": 0,
    "uid": "c4023f95f02890440869d982"
}{
    "name": "王家里路",
    "location": {
        "lat": 30.999131,
        "lng": 121.346229
    },
    "address": "上海市闵行区",
    "province": "上海市",
    "city": "上海市",
    "area": "闵行区",
    "detail": 0,
    "uid": "8b03b4ff3ca68ebdda2f28b7"
}{
    "name": "江川路",
    "location": {
        "lat": 30.999176,
        "lng": 121.376621
    },
    "address": "上海市闵行区",
    "province": "上海市",
    "city": "上海市",
    "area": "闵行区",
    "detail": 0,
    "uid": "533991b949e09ae013293597"
}{
    "name": "广场路",
    "location": {
        "lat": 30.998544,
        "lng": 121.342877
    },
    "address": "上海市闵行区",
    "province": "上海市",
    "city": "上海市",
    "area": "闵行区",
    "detail": 0,
    "uid": "8852010db66e3574c8c3db6d"
}{
    "name": "汇江路",
    "location": {
        "lat": 31.009826,
        "lng": 121.349088
    },
    "address": "上海市闵行区",
    "province": "上海市",
    "city": "上海市",
    "area": "闵行区",
    "detail": 0,
    "uid": "cd180f0396275777c06c14fe"
}{
    "name": "民仙路",
    "location": {
        "lat": 30.999168,
        "lng": 121.347376
    },
    "address": "上海市闵行区",
    "province": "上海市",
    "city": "上海市",
    "area": "闵行区",
    "detail": 0,
    "uid": "1149c4f63b02ce4a6c20b910"
}{
    "name": "西畴路",
    "location": {
        "lat": 30.989075,
        "lng": 121.360742
    },
    "address": "上海市闵行区",
    "province": "上海市",
    "city": "上海市",
    "area": "闵行区",
    "detail": 0,
    "uid": "a0598ac935fbae831c580019"
}{
    "name": "吴家里路",
    "location": {
        "lat": 30.998699,
        "lng": 121.347342
    },
    "address": "上海市闵行区",
    "province": "上海市",
    "city": "上海市",
    "area": "闵行区",
    "detail": 0,
    "uid": "eb9b9b3bd64eb41cdbeced84"
}{
    "name": "荷巷桥路",
    "location": {
        "lat": 30.997761,
        "lng": 121.356547
    },
    "address": "上海市闵行区",
    "province": "上海市",
    "city": "上海市",
    "area": "闵行区",
    "detail": 0,
    "uid": "e65279e913cc58556d476005"
}{
    "name": "紫东路",
    "location": {
        "lat": 31.020924,
        "lng": 121.36512
    },
    "address": "上海市闵行区",
    "province": "上海市",
    "city": "上海市",
    "area": "闵行区",
    "detail": 0,
    "uid": "58e1682d4aed015a5ed4fef4"
}{
    "name": "民高路",
    "location": {
        "lat": 30.998048,
        "lng": 121.34151
    },
    "address": "上海市闵行区",
    "province": "上海市",
    "city": "上海市",
    "area": "闵行区",
    "detail": 0,
    "uid": "223eebf63b02ce4a6c20b9cb"
}{
    "name": "绥江路",
    "location": {
        "lat": 31.003985,
        "lng": 121.367923
    },
    "address": "上海市闵行区",
    "province": "上海市",
    "city": "上海市",
    "area": "闵行区",
    "detail": 0,
    "uid": "2dbe66ec3431f54d047ce89f"
}{
    "name": "高田路",
    "location": {
        "lat": 31.002944,
        "lng": 121.378955
    },
    "address": "上海市闵行区",
    "province": "上海市",
    "city": "上海市",
    "area": "闵行区",
    "detail": 0,
    "uid": "18e1eb77b905a6d47602690b"
}{
    "name": "天宁路",
    "location": {
        "lat": 31.011286,
        "lng": 121.371167
    },
    "address": "上海市闵行区",
    "province": "上海市",
    "city": "上海市",
    "area": "闵行区",
    "detail": 0,
    "uid": "e0ae742c6c3b0e5e09ccdd5c"
}{
    "name": "碧溪路",
    "location": {
        "lat": 31.008722,
        "lng": 121.36834
    },
    "address": "上海市闵行区",
    "province": "上海市",
    "city": "上海市",
    "area": "闵行区",
    "detail": 0,
    "uid": "fb0db011c7dc4b206da3ccfa"
}{
    "name": "祥云路",
    "location": {
        "lat": 30.995216,
        "lng": 121.372804
    },
    "address": "上海市闵行区",
    "province": "上海市",
    "city": "上海市",
    "area": "闵行区",
    "detail": 0,
    "uid": "d4b7340396275777c06c1457"
}{
    "name": "西畴路",
    "location": {
        "lat": 30.99337,
        "lng": 121.359906
    },
    "address": "上海市闵行区",
    "province": "上海市",
    "city": "上海市",
    "area": "闵行区",
    "detail": 0,
    "uid": "a0598ac935fbae831c580019"
}{
    "name": "江城路",
    "location": {
        "lat": 31.009162,
        "lng": 121.371971
    },
    "address": "上海市闵行区",
    "province": "上海市",
    "city": "上海市",
    "area": "闵行区",
    "detail": 0,
    "uid": "5d70a8f55515957843afe6e6"
}{
    "name": "天星路",
    "location": {
        "lat": 31.004868,
        "lng": 121.377555
    },
    "address": "上海市闵行区",
    "province": "上海市",
    "city": "上海市",
    "area": "闵行区",
    "detail": 0,
    "uid": "ba1c8658bdeb6544e0110385"
}{
    "name": "昆阳路",
    "location": {
        "lat": 31.02909,
        "lng": 121.37095
    },
    "address": "上海市闵行区",
    "province": "上海市",
    "city": "上海市",
    "area": "闵行区",
    "detail": 0,
    "uid": "b7b98494b51b7a184007c10c"
}{
    "name": "江薛路",
    "location": {
        "lat": 30.998422,
        "lng": 121.37812
    },
    "address": "上海市闵行区",
    "province": "上海市",
    "city": "上海市",
    "area": "闵行区",
    "detail": 0,
    "uid": "ac3337caa35f3ba55d0d0282"
}{
    "name": "丽江路",
    "location": {
        "lat": 31.001556,
        "lng": 121.387062
    },
    "address": "上海市闵行区",
    "province": "上海市",
    "city": "上海市",
    "area": "闵行区",
    "detail": 0,
    "uid": "3f1b10fc28cd251103ec0181"
}{
    "name": "高田路",
    "location": {
        "lat": 31.002944,
        "lng": 121.378955
    },
    "address": "上海市闵行区",
    "province": "上海市",
    "city": "上海市",
    "area": "闵行区",
    "detail": 0,
    "uid": "18e1eb77b905a6d47602690b"
}{
    "name": "南谷路",
    "location": {
        "lat": 31.005146,
        "lng": 121.385186
    },
    "address": "上海市闵行区",
    "province": "上海市",
    "city": "上海市",
    "area": "闵行区",
    "detail": 0,
    "uid": "ca665df1e73da856efdfca10"
}{
    "name": "南雅路",
    "location": {
        "lat": 31.008476,
        "lng": 121.390985
    },
    "address": "上海市闵行区",
    "province": "上海市",
    "city": "上海市",
    "area": "闵行区",
    "detail": 0,
    "uid": "f0a2ea450b488f6fa7c756a4"
}{
    "name": "南沙路",
    "location": {
        "lat": 31.004803,
        "lng": 121.392341
    },
    "address": "上海市闵行区",
    "province": "上海市",
    "city": "上海市",
    "area": "闵行区",
    "detail": 0,
    "uid": "0c203aa9ad2e8a57f21937bb"
}{
    "name": "大姚路",
    "location": {
        "lat": 31.000429,
        "lng": 121.391913
    },
    "address": "上海市闵行区",
    "province": "上海市",
    "city": "上海市",
    "area": "闵行区",
    "detail": 0,
    "uid": "247842ee29ebc3955ebe8600"
}{
    "name": "大关路",
    "location": {
        "lat": 31.002063,
        "lng": 121.392451
    },
    "address": "上海市闵行区",
    "province": "上海市",
    "city": "上海市",
    "area": "闵行区",
    "detail": 0,
    "uid": "e96508042407fd57dd1e5251"
}{
    "name": "文井路",
    "location": {
        "lat": 31.007962,
        "lng": 121.388607
    },
    "address": "上海市闵行区",
    "province": "上海市",
    "city": "上海市",
    "area": "闵行区",
    "detail": 0,
    "uid": "2bd0131a3f2fe5a796ec8419"
}{
    "name": "江薛路",
    "location": {
        "lat": 30.997757,
        "lng": 121.378356
    },
    "address": "上海市闵行区",
    "province": "上海市",
    "city": "上海市",
    "area": "闵行区",
    "detail": 0,
    "uid": "ac3337caa35f3ba55d0d0282"
}{
    "name": "兰村路",
    "location": {
        "lat": 31.008278,
        "lng": 121.390194
    },
    "address": "上海市闵行区",
    "province": "上海市",
    "city": "上海市",
    "area": "闵行区",
    "detail": 0,
    "uid": "046aab8935dc0df92eb96d03"
}{
    "name": "华宁南路",
    "location": {
        "lat": 31.003794,
        "lng": 121.406135
    },
    "address": "上海市闵行区",
    "province": "上海市",
    "city": "上海市",
    "area": "闵行区",
    "detail": 0,
    "uid": "3b8c7cec3431f54d047ce889"
}{
    "name": "宾川路",
    "location": {
        "lat": 31.010343,
        "lng": 121.41977
    },
    "address": "上海市闵行区",
    "province": "上海市",
    "city": "上海市",
    "area": "闵行区",
    "detail": 0,
    "uid": "8cc927a86ef8036b33f71dd9"
}{
    "name": "瑞丽路",
    "location": {
        "lat": 31.01305,
        "lng": 121.414984
    },
    "address": "上海市闵行区",
    "province": "上海市",
    "city": "上海市",
    "area": "闵行区",
    "detail": 0,
    "uid": "e4afff1cd240c06420026217"
}{
    "name": "菱川路",
    "location": {
        "lat": 31.002923,
        "lng": 121.400907
    },
    "address": "上海市闵行区",
    "province": "上海市",
    "city": "上海市",
    "area": "闵行区",
    "detail": 0,
    "uid": "b6a60c11a3f0eefe00294f0d"
}{
    "name": "鹤庆路",
    "location": {
        "lat": 31.014049,
        "lng": 121.4209
    },
    "address": "上海市闵行区",
    "province": "上海市",
    "city": "上海市",
    "area": "闵行区",
    "detail": 0,
    "uid": "1a8917b9321db961dcee8b0a"
}{
    "name": "碧江路",
    "location": {
        "lat": 31.013417,
        "lng": 121.408951
    },
    "address": "上海市闵行区",
    "province": "上海市",
    "city": "上海市",
    "area": "闵行区",
    "detail": 0,
    "uid": "49f55a7d2e2bce8cab059d92"
}{
    "name": "景谷路",
    "location": {
        "lat": 31.021343,
        "lng": 121.415965
    },
    "address": "上海市闵行区",
    "province": "上海市",
    "city": "上海市",
    "area": "闵行区",
    "detail": 0,
    "uid": "16d45bf0fb50b53e2002200f"
}{
    "name": "临沧支路",
    "location": {
        "lat": 31.000727,
        "lng": 121.400527
    },
    "address": "上海市闵行区",
    "province": "上海市",
    "city": "上海市",
    "area": "闵行区",
    "detail": 0,
    "uid": "ca3ab8f768b039602bfc48de"
}{
    "name": "临沧路",
    "location": {
        "lat": 31.007292,
        "lng": 121.394685
    },
    "address": "上海市闵行区",
    "province": "上海市",
    "city": "上海市",
    "area": "闵行区",
    "detail": 0,
    "uid": "65dbf8bece4c4917b03c81fb"
}{
    "name": "碧藤路",
    "location": {
        "lat": 31.011598,
        "lng": 121.408203
    },
    "address": "上海市闵行区",
    "province": "上海市",
    "city": "上海市",
    "area": "闵行区",
    "detail": 0,
    "uid": "e9cfc21774e4f36840d63e3d"
}{
    "name": "建设路",
    "location": {
        "lat": 31.004952,
        "lng": 121.43
    },
    "address": "上海市闵行区",
    "province": "上海市",
    "city": "上海市",
    "area": "闵行区",
    "detail": 0,
    "uid": "bdff8efa9be7ff62c07da2cf"
}{
    "name": "兰坪路",
    "location": {
        "lat": 31.013259,
        "lng": 121.424204
    },
    "address": "上海市闵行区",
    "province": "上海市",
    "city": "上海市",
    "area": "闵行区",
    "detail": 0,
    "uid": "889f5a56470b0e033310afb7"
}{
    "name": "华坪路",
    "location": {
        "lat": 31.00629,
        "lng": 121.427286
    },
    "address": "上海市闵行区",
    "province": "上海市",
    "city": "上海市",
    "area": "闵行区",
    "detail": 0,
    "uid": "8937820223e487e1d1ff2333"
}{
    "name": "沿浦路",
    "location": {
        "lat": 30.997237,
        "lng": 121.431842
    },
    "address": "上海市奉贤区",
    "province": "上海市",
    "city": "上海市",
    "area": "奉贤区",
    "detail": 0,
    "uid": "a3d240071bdd32f0f6e73b23"
}{
    "name": "鹤庆路",
    "location": {
        "lat": 31.014049,
        "lng": 121.4209
    },
    "address": "上海市闵行区",
    "province": "上海市",
    "city": "上海市",
    "area": "闵行区",
    "detail": 0,
    "uid": "1a8917b9321db961dcee8b0a"
}{
    "name": "浦江路",
    "location": {
        "lat": 31.003667,
        "lng": 121.431001
    },
    "address": "上海市闵行区",
    "province": "上海市",
    "city": "上海市",
    "area": "闵行区",
    "detail": 0,
    "uid": "250fce47462a194bb9bd63c6"
}{
    "name": "瑞丽路",
    "location": {
        "lat": 31.01305,
        "lng": 121.414984
    },
    "address": "上海市闵行区",
    "province": "上海市",
    "city": "上海市",
    "area": "闵行区",
    "detail": 0,
    "uid": "e4afff1cd240c06420026217"
}{
    "name": "宾川路",
    "location": {
        "lat": 31.010343,
        "lng": 121.41977
    },
    "address": "上海市闵行区",
    "province": "上海市",
    "city": "上海市",
    "area": "闵行区",
    "detail": 0,
    "uid": "8cc927a86ef8036b33f71dd9"
}{
    "name": "新闵路",
    "location": {
        "lat": 31.010003,
        "lng": 121.435809
    },
    "address": "上海市闵行区",
    "province": "上海市",
    "city": "上海市",
    "area": "闵行区",
    "detail": 0,
    "uid": "ce63900a8a3d3ac08adb731c"
}{
    "name": "沿江路",
    "location": {
        "lat": 31.002582,
        "lng": 121.438731
    },
    "address": "上海市奉贤区",
    "province": "上海市",
    "city": "上海市",
    "area": "奉贤区",
    "detail": 0,
    "uid": "56858a026a2bea753717dc5b"
}{
    "name": "西闸公路",
    "location": {
        "lat": 30.990529,
        "lng": 121.431647
    },
    "address": "上海市奉贤区",
    "province": "上海市",
    "city": "上海市",
    "area": "奉贤区",
    "detail": 0,
    "uid": "8dcb44d8fee6635997f08c1e"
}{
    "name": "美宝路",
    "location": {
        "lat": 30.991793,
        "lng": 121.459368
    },
    "address": "上海市奉贤区",
    "province": "上海市",
    "city": "上海市",
    "area": "奉贤区",
    "detail": 0,
    "uid": "74e4431195be8a4e2cb17e98"
}{
    "name": "浦南路",
    "location": {
        "lat": 31.005959,
        "lng": 121.448436
    },
    "address": "上海市奉贤区",
    "province": "上海市",
    "city": "上海市",
    "area": "奉贤区",
    "detail": 0,
    "uid": "9a02a2fea9cfa740cb09f074"
}{
    "name": "西闸支路",
    "location": {
        "lat": 30.999636,
        "lng": 121.448698
    },
    "address": "上海市奉贤区",
    "province": "上海市",
    "city": "上海市",
    "area": "奉贤区",
    "detail": 0,
    "uid": "145865f0fb50b53e21022083"
}{
    "name": "沿江路",
    "location": {
        "lat": 31.002582,
        "lng": 121.438731
    },
    "address": "上海市奉贤区",
    "province": "上海市",
    "city": "上海市",
    "area": "奉贤区",
    "detail": 0,
    "uid": "56858a026a2bea753717dc5b"
}{
    "name": "X421",
    "location": {
        "lat": 31.007728,
        "lng": 121.473
    },
    "address": "上海市",
    "province": "上海市",
    "city": "上海市",
    "area": "",
    "detail": 0,
    "uid": "754f0cec45db67f7714b8751"
}{
    "name": "闸园路",
    "location": {
        "lat": 30.998962,
        "lng": 121.439214
    },
    "address": "上海市奉贤区",
    "province": "上海市",
    "city": "上海市",
    "area": "奉贤区",
    "detail": 0,
    "uid": "27ca0ef710b5a7a511882495"
}{
    "name": "扶兰路",
    "location": {
        "lat": 30.998334,
        "lng": 121.443445
    },
    "address": "上海市奉贤区",
    "province": "上海市",
    "city": "上海市",
    "area": "奉贤区",
    "detail": 0,
    "uid": "a711310891be585133870a06"
}{
    "name": "扶兰支路",
    "location": {
        "lat": 30.996373,
        "lng": 121.447292
    },
    "address": "上海市奉贤区",
    "province": "上海市",
    "city": "上海市",
    "area": "奉贤区",
    "detail": 0,
    "uid": "f09092f04a242554326212d8"
}{
    "name": "兰坪路",
    "location": {
        "lat": 31.013259,
        "lng": 121.424204
    },
    "address": "上海市闵行区",
    "province": "上海市",
    "city": "上海市",
    "area": "闵行区",
    "detail": 0,
    "uid": "889f5a56470b0e033310afb7"
}{
    "name": "白庙港路",
    "location": {
        "lat": 31.003629,
        "lng": 121.47078
    },
    "address": "上海市奉贤区",
    "province": "上海市",
    "city": "上海市",
    "area": "奉贤区",
    "detail": 0,
    "uid": "20fe160458ee9582601c67e3"
}{
    "name": "西闸公路",
    "location": {
        "lat": 30.990529,
        "lng": 121.431647
    },
    "address": "上海市奉贤区",
    "province": "上海市",
    "city": "上海市",
    "area": "奉贤区",
    "detail": 0,
    "uid": "8dcb44d8fee6635997f08c1e"
}{
    "name": "美宝路",
    "location": {
        "lat": 30.991793,
        "lng": 121.459368
    },
    "address": "上海市奉贤区",
    "province": "上海市",
    "city": "上海市",
    "area": "奉贤区",
    "detail": 0,
    "uid": "74e4431195be8a4e2cb17e98"
}{
    "name": "虹梅南路隧道",
    "location": {
        "lat": 31.006779,
        "lng": 121.481056
    },
    "address": "上海市",
    "province": "上海市",
    "city": "上海市",
    "area": "",
    "detail": 0,
    "uid": "a67de0fd5b009d930bb93a5f"
}{
    "name": "潘家堂路",
    "location": {
        "lat": 31.00339,
        "lng": 121.47602
    },
    "address": "上海市奉贤区",
    "province": "上海市",
    "city": "上海市",
    "area": "奉贤区",
    "detail": 0,
    "uid": "9499b4fea9cfa740cb09f0d3"
}{
    "name": "华松路",
    "location": {
        "lat": 30.986016,
        "lng": 121.449098
    },
    "address": "上海市奉贤区",
    "province": "上海市",
    "city": "上海市",
    "area": "奉贤区",
    "detail": 0,
    "uid": "aef2d669d2a493b92a06ced9"
}{
    "name": "亿松路",
    "location": {
        "lat": 30.987104,
        "lng": 121.459309
    },
    "address": "上海市奉贤区",
    "province": "上海市",
    "city": "上海市",
    "area": "奉贤区",
    "detail": 0,
    "uid": "bdeb90b091be753e06026f23"
}{
    "name": "南渡村路",
    "location": {
        "lat": 31.006221,
        "lng": 121.464261
    },
    "address": "上海市奉贤区",
    "province": "上海市",
    "city": "上海市",
    "area": "奉贤区",
    "detail": 0,
    "uid": "ffe0d7e5681fc6473904b183"
}{
    "name": "刘大路",
    "location": {
        "lat": 30.990003,
        "lng": 121.462002
    },
    "address": "上海市奉贤区",
    "province": "上海市",
    "city": "上海市",
    "area": "奉贤区",
    "detail": 0,
    "uid": "9884cb493252e3a58a36eeb3"
}{
    "name": "叶梅路",
    "location": {
        "lat": 30.983826,
        "lng": 121.471761
    },
    "address": "上海市奉贤区",
    "province": "上海市",
    "city": "上海市",
    "area": "奉贤区",
    "detail": 0,
    "uid": "c6218eb90c0014f8b7147f23"
}{
    "name": "中心河桥",
    "location": {
        "lat": 31.004449,
        "lng": 121.489603
    },
    "address": "上海市奉贤区",
    "province": "上海市",
    "city": "上海市",
    "area": "奉贤区",
    "detail": 0,
    "uid": "0264fb5503a5bc5cbc4842f8"
}{
    "name": "虹梅南路隧道",
    "location": {
        "lat": 31.006779,
        "lng": 121.481056
    },
    "address": "上海市",
    "province": "上海市",
    "city": "上海市",
    "area": "",
    "detail": 0,
    "uid": "a67de0fd5b009d930bb93a5f"
}{
    "name": "五宅路",
    "location": {
        "lat": 31.004889,
        "lng": 121.489874
    },
    "address": "上海市奉贤区",
    "province": "上海市",
    "city": "上海市",
    "area": "奉贤区",
    "detail": 0,
    "uid": "913dfad4eab8d63de315f922"
}{
    "name": "益北路",
    "location": {
        "lat": 30.987872,
        "lng": 121.494466
    },
    "address": "上海市奉贤区",
    "province": "上海市",
    "city": "上海市",
    "area": "奉贤区",
    "detail": 0,
    "uid": "24e2dfd6f7fadd4ea5da39b7"
}{
    "name": "金庄公路",
    "location": {
        "lat": 30.995614,
        "lng": 121.484482
    },
    "address": "上海市奉贤区",
    "province": "上海市",
    "city": "上海市",
    "area": "奉贤区",
    "detail": 0,
    "uid": "7456bfa8a616e9644154d745"
}{
    "name": "Y668",
    "location": {
        "lat": 31.000608,
        "lng": 121.482986
    },
    "address": "上海市奉贤区",
    "province": "上海市",
    "city": "上海市",
    "area": "奉贤区",
    "detail": 0,
    "uid": "2931ee5503a5bc5cbc48420f"
}{
    "name": "新民港路",
    "location": {
        "lat": 30.99217,
        "lng": 121.479877
    },
    "address": "上海市奉贤区",
    "province": "上海市",
    "city": "上海市",
    "area": "奉贤区",
    "detail": 0,
    "uid": "86007ae37526799f48fd3fcb"
}{
    "name": "金庄公路辅路",
    "location": {
        "lat": 30.995847,
        "lng": 121.48483
    },
    "address": "上海市奉贤区",
    "province": "上海市",
    "city": "上海市",
    "area": "奉贤区",
    "detail": 0,
    "uid": "281dfc573370194b9de3219d"
}{
    "name": "金海公路辅路",
    "location": {
        "lat": 30.997904,
        "lng": 121.483551
    },
    "address": "上海市奉贤区",
    "province": "上海市",
    "city": "上海市",
    "area": "奉贤区",
    "detail": 0,
    "uid": "cefd78c3b7af2058d12dd6b0"
}{
    "name": "西闸公路桥",
    "location": {
        "lat": 31.010083,
        "lng": 121.498631
    },
    "address": "上海市奉贤区",
    "province": "上海市",
    "city": "上海市",
    "area": "奉贤区",
    "detail": 0,
    "uid": "6879ebe5a59333554251c085"
}{
    "name": "汇北河桥",
    "location": {
        "lat": 31.00286,
        "lng": 121.505727
    },
    "address": "上海市奉贤区",
    "province": "上海市",
    "city": "上海市",
    "area": "奉贤区",
    "detail": 0,
    "uid": "c8a4edbf5073da5cea56fa60"
}{
    "name": "金闸公路",
    "location": {
        "lat": 30.98434,
        "lng": 121.510077
    },
    "address": "上海市奉贤区",
    "province": "上海市",
    "city": "上海市",
    "area": "奉贤区",
    "detail": 0,
    "uid": "2cf8c33e7f6bf160f4b9168b"
}{
    "name": "金汇工业路",
    "location": {
        "lat": 30.997517,
        "lng": 121.522476
    },
    "address": "上海市奉贤区",
    "province": "上海市",
    "city": "上海市",
    "area": "奉贤区",
    "detail": 0,
    "uid": "60249bd77101d6ad39e4a6d9"
}{
    "name": "金发路",
    "location": {
        "lat": 30.99969,
        "lng": 121.514486
    },
    "address": "上海市奉贤区",
    "province": "上海市",
    "city": "上海市",
    "area": "奉贤区",
    "detail": 0,
    "uid": "56903b6835284eacd718b736"
}{
    "name": "迎金路",
    "location": {
        "lat": 31.003084,
        "lng": 121.518674
    },
    "address": "上海市奉贤区",
    "province": "上海市",
    "city": "上海市",
    "area": "奉贤区",
    "detail": 0,
    "uid": "174b272863e9afa5fadc8501"
}{
    "name": "金汇中街",
    "location": {
        "lat": 30.994075,
        "lng": 121.509182
    },
    "address": "上海市奉贤区",
    "province": "上海市",
    "city": "上海市",
    "area": "奉贤区",
    "detail": 0,
    "uid": "8e53b0b9de1f0ace70210b0e"
}{
    "name": "锦日路",
    "location": {
        "lat": 30.998694,
        "lng": 121.513413
    },
    "address": "上海市奉贤区",
    "province": "上海市",
    "city": "上海市",
    "area": "奉贤区",
    "detail": 0,
    "uid": "3e82a4ece30ad8582bb97c89"
}{
    "name": "金汇西街",
    "location": {
        "lat": 30.993822,
        "lng": 121.505617
    },
    "address": "上海市奉贤区",
    "province": "上海市",
    "city": "上海市",
    "area": "奉贤区",
    "detail": 0,
    "uid": "eabf2648a87161f27e29bd5e"
}{
    "name": "金汇东街",
    "location": {
        "lat": 30.994222,
        "lng": 121.511309
    },
    "address": "上海市奉贤区",
    "province": "上海市",
    "city": "上海市",
    "area": "奉贤区",
    "detail": 0,
    "uid": "1197b2b57d31784b4d6d460e"
}{
    "name": "辉煌路",
    "location": {
        "lat": 31.005856,
        "lng": 121.513247
    },
    "address": "上海市奉贤区",
    "province": "上海市",
    "city": "上海市",
    "area": "奉贤区",
    "detail": 0,
    "uid": "0d47c0f63b02ce4a6c20b962"
}{
    "name": "金聚路",
    "location": {
        "lat": 31.00397,
        "lng": 121.524893
    },
    "address": "上海市奉贤区",
    "province": "上海市",
    "city": "上海市",
    "area": "奉贤区",
    "detail": 0,
    "uid": "9511cc1cd240c06421026289"
}{
    "name": "江艇路",
    "location": {
        "lat": 31.002981,
        "lng": 121.525753
    },
    "address": "上海市奉贤区",
    "province": "上海市",
    "city": "上海市",
    "area": "奉贤区",
    "detail": 0,
    "uid": "536b38ecaf8ffcb945572689"
}{
    "name": "辉煌路",
    "location": {
        "lat": 31.004216,
        "lng": 121.507601
    },
    "address": "上海市奉贤区",
    "province": "上海市",
    "city": "上海市",
    "area": "奉贤区",
    "detail": 0,
    "uid": "0d47c0f63b02ce4a6c20b962"
}{
    "name": "金斗路",
    "location": {
        "lat": 31.001225,
        "lng": 121.529205
    },
    "address": "上海市奉贤区",
    "province": "上海市",
    "city": "上海市",
    "area": "奉贤区",
    "detail": 0,
    "uid": "fe00a81cfc56794e0582c244"
}{
    "name": "金闸公路",
    "location": {
        "lat": 30.995505,
        "lng": 121.510541
    },
    "address": "上海市奉贤区",
    "province": "上海市",
    "city": "上海市",
    "area": "奉贤区",
    "detail": 0,
    "uid": "2cf8c33e7f6bf160f4b9168b"
}{
    "name": "汇中路",
    "location": {
        "lat": 30.994324,
        "lng": 121.507221
    },
    "address": "上海市奉贤区",
    "province": "上海市",
    "city": "上海市",
    "area": "奉贤区",
    "detail": 0,
    "uid": "d0202f5565ebb27fcc04ef19"
}{
    "name": "永南路",
    "location": {
        "lat": 31.011271,
        "lng": 121.522796
    },
    "address": "上海市",
    "province": "上海市",
    "city": "上海市",
    "area": "",
    "detail": 0,
    "uid": "15a313a9ad2e8a57f3193734"
}{
    "name": "鼎金路",
    "location": {
        "lat": 31.007218,
        "lng": 121.520945
    },
    "address": "上海市奉贤区",
    "province": "上海市",
    "city": "上海市",
    "area": "奉贤区",
    "detail": 0,
    "uid": "40ba732f15f096fb9eec2b02"
}{
    "name": "迎金路",
    "location": {
        "lat": 31.003351,
        "lng": 121.520707
    },
    "address": "上海市奉贤区",
    "province": "上海市",
    "city": "上海市",
    "area": "奉贤区",
    "detail": 0,
    "uid": "174b272863e9afa5fadc8501"
}{
    "name": "金汇工业路",
    "location": {
        "lat": 30.996952,
        "lng": 121.513053
    },
    "address": "上海市奉贤区",
    "province": "上海市",
    "city": "上海市",
    "area": "奉贤区",
    "detail": 0,
    "uid": "60249bd77101d6ad39e4a6d9"
}{
    "name": "金斗路",
    "location": {
        "lat": 31.001225,
        "lng": 121.529205
    },
    "address": "上海市奉贤区",
    "province": "上海市",
    "city": "上海市",
    "area": "奉贤区",
    "detail": 0,
    "uid": "fe00a81cfc56794e0582c244"
}{
    "name": "贤农路",
    "location": {
        "lat": 30.99992,
        "lng": 121.5554
    },
    "address": "上海市闵行区",
    "province": "上海市",
    "city": "上海市",
    "area": "闵行区",
    "detail": 0,
    "uid": "49f4afb949e09ae012293522"
}{
    "name": "沿浦公路",
    "location": {
        "lat": 30.997501,
        "lng": 121.544447
    },
    "address": "上海市",
    "province": "上海市",
    "city": "上海市",
    "area": "",
    "detail": 0,
    "uid": "5db2c0bece4c4917b03c8162"
}{
    "name": "汇中路",
    "location": {
        "lat": 30.994324,
        "lng": 121.507221
    },
    "address": "上海市奉贤区",
    "province": "上海市",
    "city": "上海市",
    "area": "奉贤区",
    "detail": 0,
    "uid": "d0202f5565ebb27fcc04ef19"
}{
    "name": "泰西路",
    "location": {
        "lat": 30.980669,
        "lng": 121.560185
    },
    "address": "上海市奉贤区",
    "province": "上海市",
    "city": "上海市",
    "area": "奉贤区",
    "detail": 0,
    "uid": "a0fc4d856514af4a29201a56"
}{
    "name": "金聚路",
    "location": {
        "lat": 31.00397,
        "lng": 121.524893
    },
    "address": "上海市奉贤区",
    "province": "上海市",
    "city": "上海市",
    "area": "奉贤区",
    "detail": 0,
    "uid": "9511cc1cd240c06421026289"
}{
    "name": "明星路",
    "location": {
        "lat": 30.991227,
        "lng": 121.549023
    },
    "address": "上海市奉贤区",
    "province": "上海市",
    "city": "上海市",
    "area": "奉贤区",
    "detail": 0,
    "uid": "0bc34d184009014dfb42b2da"
}{
    "name": "继光路",
    "location": {
        "lat": 30.997296,
        "lng": 121.535824
    },
    "address": "上海市奉贤区",
    "province": "上海市",
    "city": "上海市",
    "area": "奉贤区",
    "detail": 0,
    "uid": "7a53d24f9f3c50008d55ec0e"
}{
    "name": "汇中路二号桥",
    "location": {
        "lat": 30.996977,
        "lng": 121.539852
    },
    "address": "上海市奉贤区",
    "province": "上海市",
    "city": "上海市",
    "area": "奉贤区",
    "detail": 0,
    "uid": "0dbfc929e5f1bd4cf703b8f4"
}{
    "name": "文君路",
    "location": {
        "lat": 31.014465,
        "lng": 121.544766
    },
    "address": "上海市闵行区",
    "province": "上海市",
    "city": "上海市",
    "area": "闵行区",
    "detail": 0,
    "uid": "e0a9c31028f771b516948e38"
}{
    "name": "Y009",
    "location": {
        "lat": 31.003778,
        "lng": 121.565614
    },
    "address": "上海市闵行区",
    "province": "上海市",
    "city": "上海市",
    "area": "闵行区",
    "detail": 0,
    "uid": "0236a18935dc0df92eb96dff"
}{
    "name": "泰青公路",
    "location": {
        "lat": 30.959326,
        "lng": 121.575964
    },
    "address": "上海市奉贤区",
    "province": "上海市",
    "city": "上海市",
    "area": "奉贤区",
    "detail": 0,
    "uid": "1881dae2781c4681f70e771a"
}{
    "name": "中南河桥",
    "location": {
        "lat": 31.004852,
        "lng": 121.569718
    },
    "address": "上海市闵行区",
    "province": "上海市",
    "city": "上海市",
    "area": "闵行区",
    "detail": 0,
    "uid": "49159afa9be7ff62c17da2e1"
}{
    "name": "泰梅路",
    "location": {
        "lat": 30.99998,
        "lng": 121.596725
    },
    "address": "上海市奉贤区",
    "province": "上海市",
    "city": "上海市",
    "area": "奉贤区",
    "detail": 0,
    "uid": "ad9033ee92e17dabc71b751a"
}{
    "name": "明星路",
    "location": {
        "lat": 30.991227,
        "lng": 121.549023
    },
    "address": "上海市奉贤区",
    "province": "上海市",
    "city": "上海市",
    "area": "奉贤区",
    "detail": 0,
    "uid": "0bc34d184009014dfb42b2da"
}{
    "name": "泰西路",
    "location": {
        "lat": 30.980669,
        "lng": 121.560185
    },
    "address": "上海市奉贤区",
    "province": "上海市",
    "city": "上海市",
    "area": "奉贤区",
    "detail": 0,
    "uid": "a0fc4d856514af4a29201a56"
}{
    "name": "贤农路",
    "location": {
        "lat": 30.99992,
        "lng": 121.5554
    },
    "address": "上海市闵行区",
    "province": "上海市",
    "city": "上海市",
    "area": "闵行区",
    "detail": 0,
    "uid": "49f4afb949e09ae012293522"
}{
    "name": "振泰路",
    "location": {
        "lat": 30.987012,
        "lng": 121.569423
    },
    "address": "上海市奉贤区",
    "province": "上海市",
    "city": "上海市",
    "area": "奉贤区",
    "detail": 0,
    "uid": "dfc8293c56e2c864f5eafc4a"
}{
    "name": "泰叶路",
    "location": {
        "lat": 30.98491,
        "lng": 121.567669
    },
    "address": "上海市奉贤区",
    "province": "上海市",
    "city": "上海市",
    "area": "奉贤区",
    "detail": 0,
    "uid": "29e389228cf08f16d5851fcc"
}{
    "name": "耀辉路",
    "location": {
        "lat": 30.992626,
        "lng": 121.567937
    },
    "address": "上海市奉贤区",
    "province": "上海市",
    "city": "上海市",
    "area": "奉贤区",
    "detail": 0,
    "uid": "2b3d10acefe223dd0b1cc7bd"
}{
    "name": "联海桥",
    "location": {
        "lat": 31.022836,
        "lng": 121.249216
    },
    "address": "上海市松江区",
    "province": "上海市",
    "city": "上海市",
    "area": "松江区",
    "detail": 0,
    "uid": "e7ab9c11c7dc4b206da3cc50"
}{
    "name": "北门街",
    "location": {
        "lat": 31.019758,
        "lng": 121.248464
    },
    "address": "上海市松江区",
    "province": "上海市",
    "city": "上海市",
    "area": "松江区",
    "detail": 0,
    "uid": "0da703dab4becfaea3a93450"
}{
    "name": "袜子弄",
    "location": {
        "lat": 31.017027,
        "lng": 121.248152
    },
    "address": "上海市松江区",
    "province": "上海市",
    "city": "上海市",
    "area": "松江区",
    "detail": 0,
    "uid": "9169631bc5f0d35717a19001"
}{
    "name": "方塔北路",
    "location": {
        "lat": 31.030825,
        "lng": 121.253062
    },
    "address": "上海市松江区",
    "province": "上海市",
    "city": "上海市",
    "area": "松江区",
    "detail": 0,
    "uid": "ca39b8f768b039602bfc48db"
}{
    "name": "沪松路七弄",
    "location": {
        "lat": 31.020563,
        "lng": 121.24951
    },
    "address": "上海市松江区北门街与沪松路交叉口西北方向30米",
    "province": "上海市",
    "city": "上海市",
    "area": "松江区",
    "street_id": "54331808e44bdeb28b36ee64",
    "detail": 1,
    "uid": "54331808e44bdeb28b36ee64"
}{
    "name": "松乐路",
    "location": {
        "lat": 31.015886,
        "lng": 121.246642
    },
    "address": "上海市松江区",
    "province": "上海市",
    "city": "上海市",
    "area": "松江区",
    "detail": 0,
    "uid": "81e6a82994fb88054acc4a00"
}{
    "name": "沪松路",
    "location": {
        "lat": 31.020678,
        "lng": 121.250379
    },
    "address": "上海市松江区",
    "province": "上海市",
    "city": "上海市",
    "area": "松江区",
    "detail": 0,
    "uid": "f2c3941cfc56794e0582c20b"
}{
    "name": "松东路",
    "location": {
        "lat": 31.028534,
        "lng": 121.259949
    },
    "address": "上海市松江区",
    "province": "上海市",
    "city": "上海市",
    "area": "松江区",
    "detail": 0,
    "uid": "f50cdcc848093743353a71ca"
}{
    "name": "乐都路",
    "location": {
        "lat": 31.019517,
        "lng": 121.230516
    },
    "address": "上海市松江区",
    "province": "上海市",
    "city": "上海市",
    "area": "松江区",
    "detail": 0,
    "uid": "426513db8bb717f04d776e9f"
}{
    "name": "环城路",
    "location": {
        "lat": 31.016498,
        "lng": 121.258236
    },
    "address": "上海市松江区",
    "province": "上海市",
    "city": "上海市",
    "area": "松江区",
    "detail": 0,
    "uid": "e9b9890d95d0f74feee4a5e9"
}{
    "name": "荣乐东路",
    "location": {
        "lat": 31.023127,
        "lng": 121.269735
    },
    "address": "上海市松江区",
    "province": "上海市",
    "city": "上海市",
    "area": "松江区",
    "detail": 0,
    "uid": "1dd5291440a0a7beadee7a17"
}{
    "name": "松东路",
    "location": {
        "lat": 31.028534,
        "lng": 121.259949
    },
    "address": "上海市松江区",
    "province": "上海市",
    "city": "上海市",
    "area": "松江区",
    "detail": 0,
    "uid": "f50cdcc848093743353a71ca"
}{
    "name": "宝荣路",
    "location": {
        "lat": 31.029444,
        "lng": 121.269773
    },
    "address": "上海市松江区",
    "province": "上海市",
    "city": "上海市",
    "area": "松江区",
    "detail": 0,
    "uid": "35f814f1819df2b36068583c"
}{
    "name": "洞泾路",
    "location": {
        "lat": 31.029209,
        "lng": 121.265112
    },
    "address": "上海市松江区",
    "province": "上海市",
    "city": "上海市",
    "area": "松江区",
    "detail": 0,
    "uid": "e6f5b91d8d65c36b83a00c85"
}{
    "name": "环城路",
    "location": {
        "lat": 31.016498,
        "lng": 121.258236
    },
    "address": "上海市松江区",
    "province": "上海市",
    "city": "上海市",
    "area": "松江区",
    "detail": 0,
    "uid": "e9b9890d95d0f74feee4a5e9"
}{
    "name": "宝益路",
    "location": {
        "lat": 31.028664,
        "lng": 121.269858
    },
    "address": "上海市松江区",
    "province": "上海市",
    "city": "上海市",
    "area": "松江区",
    "detail": 0,
    "uid": "1993ec549b0c105879dbd2b2"
}{
    "name": "俞塘路",
    "location": {
        "lat": 31.026384,
        "lng": 121.258445
    },
    "address": "上海市松江区",
    "province": "上海市",
    "city": "上海市",
    "area": "松江区",
    "detail": 0,
    "uid": "1db396a8a616e9644154d760"
}{
    "name": "中山东路",
    "location": {
        "lat": 31.017731,
        "lng": 121.272282
    },
    "address": "上海市松江区",
    "province": "上海市",
    "city": "上海市",
    "area": "松江区",
    "detail": 0,
    "uid": "707cb6b9f3703f4b9e9d68bf"
}{
    "name": "方塔北路",
    "location": {
        "lat": 31.030825,
        "lng": 121.253062
    },
    "address": "上海市松江区",
    "province": "上海市",
    "city": "上海市",
    "area": "松江区",
    "detail": 0,
    "uid": "ca39b8f768b039602bfc48db"
}{
    "name": "宝胜路",
    "location": {
        "lat": 31.023979,
        "lng": 121.277758
    },
    "address": "上海市松江区",
    "province": "上海市",
    "city": "上海市",
    "area": "松江区",
    "detail": 0,
    "uid": "7de334ec45db67f7714b87fd"
}{
    "name": "华加路",
    "location": {
        "lat": 31.023696,
        "lng": 121.282266
    },
    "address": "上海市松江区",
    "province": "上海市",
    "city": "上海市",
    "area": "松江区",
    "detail": 0,
    "uid": "ff3eadcc20927666a90dd8d9"
}{
    "name": "北松公路",
    "location": {
        "lat": 31.00799,
        "lng": 121.266601
    },
    "address": "上海市",
    "province": "上海市",
    "city": "上海市",
    "area": "",
    "detail": 0,
    "uid": "4e5343ec3431f54d057ce8fa"
}{
    "name": "宝胜路",
    "location": {
        "lat": 31.023979,
        "lng": 121.277758
    },
    "address": "上海市松江区",
    "province": "上海市",
    "city": "上海市",
    "area": "松江区",
    "detail": 0,
    "uid": "7de334ec45db67f7714b87fd"
}{
    "name": "西泖泾路",
    "location": {
        "lat": 31.027221,
        "lng": 121.29266
    },
    "address": "上海市松江区",
    "province": "上海市",
    "city": "上海市",
    "area": "松江区",
    "detail": 0,
    "uid": "290559e54e2acca33813fd29"
}{
    "name": "宝荣路",
    "location": {
        "lat": 31.029444,
        "lng": 121.269773
    },
    "address": "上海市松江区",
    "province": "上海市",
    "city": "上海市",
    "area": "松江区",
    "detail": 0,
    "uid": "35f814f1819df2b36068583c"
}{
    "name": "东兴路",
    "location": {
        "lat": 31.03536,
        "lng": 121.273647
    },
    "address": "上海市松江区",
    "province": "上海市",
    "city": "上海市",
    "area": "松江区",
    "detail": 0,
    "uid": "3842145f6a82e35a970319a4"
}{
    "name": "华扩路",
    "location": {
        "lat": 31.016133,
        "lng": 121.283116
    },
    "address": "上海市松江区",
    "province": "上海市",
    "city": "上海市",
    "area": "松江区",
    "detail": 0,
    "uid": "6524ad69b33af18a08a8d4d9"
}{
    "name": "南乐路1276弄",
    "location": {
        "lat": 31.027,
        "lng": 121.286924
    },
    "address": "上海市松江区",
    "province": "上海市",
    "city": "上海市",
    "area": "松江区",
    "detail": 0,
    "uid": "4a45425678e80ecf05fef500"
}{
    "name": "东泖泾路",
    "location": {
        "lat": 31.022345,
        "lng": 121.291884
    },
    "address": "上海市松江区",
    "province": "上海市",
    "city": "上海市",
    "area": "松江区",
    "detail": 0,
    "uid": "120cb18935dc0df92eb96d25"
}{
    "name": "三浜路",
    "location": {
        "lat": 31.035467,
        "lng": 121.3104
    },
    "address": "上海市松江区",
    "province": "上海市",
    "city": "上海市",
    "area": "松江区",
    "detail": 0,
    "uid": "242f38e301afe8b63a221cdc"
}{
    "name": "华德路",
    "location": {
        "lat": 31.022936,
        "lng": 121.311404
    },
    "address": "上海市松江区",
    "province": "上海市",
    "city": "上海市",
    "area": "松江区",
    "detail": 0,
    "uid": "931356e913cc58556d4760ca"
}{
    "name": "三庄路",
    "location": {
        "lat": 31.023643,
        "lng": 121.309286
    },
    "address": "上海市松江区",
    "province": "上海市",
    "city": "上海市",
    "area": "松江区",
    "detail": 0,
    "uid": "b2bc21df36beb45380288ad8"
}{
    "name": "车亭公路",
    "location": {
        "lat": 30.995888,
        "lng": 121.311675
    },
    "address": "上海市",
    "province": "上海市",
    "city": "上海市",
    "area": "",
    "detail": 0,
    "uid": "2e2d64223da7fcbc87420e02"
}{
    "name": "茸腾路",
    "location": {
        "lat": 31.02575,
        "lng": 121.308162
    },
    "address": "上海市松江区",
    "province": "上海市",
    "city": "上海市",
    "area": "松江区",
    "detail": 0,
    "uid": "a545c9a315f7134fc3f1cfdc"
}{
    "name": "虬长路",
    "location": {
        "lat": 31.02147,
        "lng": 121.316826
    },
    "address": "上海市松江区",
    "province": "上海市",
    "city": "上海市",
    "area": "松江区",
    "detail": 0,
    "uid": "083600dab4becfaea3a93421"
}{
    "name": "茸华路",
    "location": {
        "lat": 31.037846,
        "lng": 121.308855
    },
    "address": "上海市松江区",
    "province": "上海市",
    "city": "上海市",
    "area": "松江区",
    "detail": 0,
    "uid": "0201e5549b0c105878dbd2dc"
}{
    "name": "车嘉路",
    "location": {
        "lat": 31.018181,
        "lng": 121.310542
    },
    "address": "上海市松江区",
    "province": "上海市",
    "city": "上海市",
    "area": "松江区",
    "detail": 0,
    "uid": "05c273184009014dfb42b2db"
}{
    "name": "茸翔路",
    "location": {
        "lat": 31.02354,
        "lng": 121.304264
    },
    "address": "上海市松江区",
    "province": "上海市",
    "city": "上海市",
    "area": "松江区",
    "detail": 0,
    "uid": "a726310891be585133870a17"
}{
    "name": "影佳路",
    "location": {
        "lat": 31.014015,
        "lng": 121.320161
    },
    "address": "上海市松江区",
    "province": "上海市",
    "city": "上海市",
    "area": "松江区",
    "detail": 0,
    "uid": "df596bb99cf7cc6a1c1d1163"
}{
    "name": "振兴路",
    "location": {
        "lat": 31.020568,
        "lng": 121.315981
    },
    "address": "上海市松江区",
    "province": "上海市",
    "city": "上海市",
    "area": "松江区",
    "detail": 0,
    "uid": "314e28f1819df2b3616858ee"
}{
    "name": "俞塘桥",
    "location": {
        "lat": 31.02133,
        "lng": 121.326641
    },
    "address": "上海市松江区",
    "province": "上海市",
    "city": "上海市",
    "area": "松江区",
    "detail": 0,
    "uid": "abd095b9de1f0ace71210b8b"
}{
    "name": "影视路",
    "location": {
        "lat": 31.019563,
        "lng": 121.323923
    },
    "address": "上海市松江区",
    "province": "上海市",
    "city": "上海市",
    "area": "松江区",
    "detail": 0,
    "uid": "7fb7a00444453215c356aca9"
}{
    "name": "影维路",
    "location": {
        "lat": 31.015294,
        "lng": 121.322715
    },
    "address": "上海市松江区",
    "province": "上海市",
    "city": "上海市",
    "area": "松江区",
    "detail": 0,
    "uid": "d8922115034f2e3f58bbbc20"
}{
    "name": "车峰北路",
    "location": {
        "lat": 31.02133,
        "lng": 121.326641
    },
    "address": "上海市松江区",
    "province": "上海市",
    "city": "上海市",
    "area": "松江区",
    "detail": 0,
    "uid": "1f8130fc28cd251102ec013b"
}{
    "name": "新飞路",
    "location": {
        "lat": 31.03463,
        "lng": 121.324295
    },
    "address": "上海市松江区",
    "province": "上海市",
    "city": "上海市",
    "area": "松江区",
    "detail": 0,
    "uid": "f8a90ef0f7fb2fddbadf8fa9"
}{
    "name": "李高路",
    "location": {
        "lat": 31.029541,
        "lng": 121.32247
    },
    "address": "上海市松江区",
    "province": "上海市",
    "city": "上海市",
    "area": "松江区",
    "detail": 0,
    "uid": "9d690b0891be585133870ade"
}{
    "name": "南姚路",
    "location": {
        "lat": 31.024988,
        "lng": 121.313452
    },
    "address": "上海市松江区",
    "province": "上海市",
    "city": "上海市",
    "area": "松江区",
    "detail": 0,
    "uid": "0295170792b68e5dffa778df"
}{
    "name": "车亭公路",
    "location": {
        "lat": 30.995888,
        "lng": 121.311675
    },
    "address": "上海市",
    "province": "上海市",
    "city": "上海市",
    "area": "",
    "detail": 0,
    "uid": "2e2d64223da7fcbc87420e02"
}{
    "name": "杨家浜桥",
    "location": {
        "lat": 31.020913,
        "lng": 121.324961
    },
    "address": "上海市松江区",
    "province": "上海市",
    "city": "上海市",
    "area": "松江区",
    "detail": 0,
    "uid": "8ebff902f26a751cbca24078"
}{
    "name": "虬长路",
    "location": {
        "lat": 31.02147,
        "lng": 121.316826
    },
    "address": "上海市松江区",
    "province": "上海市",
    "city": "上海市",
    "area": "松江区",
    "detail": 0,
    "uid": "083600dab4becfaea3a93421"
}{
    "name": "陪昆路",
    "location": {
        "lat": 31.023776,
        "lng": 121.357891
    },
    "address": "上海市闵行区",
    "province": "上海市",
    "city": "上海市",
    "area": "闵行区",
    "detail": 0,
    "uid": "16ea5bf0fb50b53e20022011"
}{
    "name": "新飞路",
    "location": {
        "lat": 31.03463,
        "lng": 121.324295
    },
    "address": "上海市松江区",
    "province": "上海市",
    "city": "上海市",
    "area": "松江区",
    "detail": 0,
    "uid": "f8a90ef0f7fb2fddbadf8fa9"
}{
    "name": "汇北路",
    "location": {
        "lat": 31.016121,
        "lng": 121.340208
    },
    "address": "上海市松江区",
    "province": "上海市",
    "city": "上海市",
    "area": "松江区",
    "detail": 0,
    "uid": "df22a69a74fd59214f3a5986"
}{
    "name": "女儿泾桥",
    "location": {
        "lat": 31.020967,
        "lng": 121.349285
    },
    "address": "上海市松江区",
    "province": "上海市",
    "city": "上海市",
    "area": "松江区",
    "detail": 0,
    "uid": "973f9920d139f925c829152f"
}{
    "name": "紫东路",
    "location": {
        "lat": 31.020924,
        "lng": 121.36512
    },
    "address": "上海市闵行区",
    "province": "上海市",
    "city": "上海市",
    "area": "闵行区",
    "detail": 0,
    "uid": "58e1682d4aed015a5ed4fef4"
}{
    "name": "书崖路",
    "location": {
        "lat": 31.031216,
        "lng": 121.337421
    },
    "address": "上海市松江区",
    "province": "上海市",
    "city": "上海市",
    "area": "松江区",
    "detail": 0,
    "uid": "a0558ac935fbae831c580015"
}{
    "name": "中青路",
    "location": {
        "lat": 31.027445,
        "lng": 121.363541
    },
    "address": "上海市闵行区",
    "province": "上海市",
    "city": "上海市",
    "area": "闵行区",
    "detail": 0,
    "uid": "b4a8b5fa9be7ff62c07da23c"
}{
    "name": "中辉路",
    "location": {
        "lat": 31.021079,
        "lng": 121.360886
    },
    "address": "上海市闵行区",
    "province": "上海市",
    "city": "上海市",
    "area": "闵行区",
    "detail": 0,
    "uid": "11cad277b905a6d476026966"
}{
    "name": "中康路",
    "location": {
        "lat": 31.022004,
        "lng": 121.356785
    },
    "address": "上海市闵行区",
    "province": "上海市",
    "city": "上海市",
    "area": "闵行区",
    "detail": 0,
    "uid": "ebf48c9404d8b0f08d1a89f8"
}{
    "name": "紫旭路",
    "location": {
        "lat": 31.023261,
        "lng": 121.36456
    },
    "address": "上海市闵行区",
    "province": "上海市",
    "city": "上海市",
    "area": "闵行区",
    "detail": 0,
    "uid": "5d24893a996927a040ab9a80"
}{
    "name": "中韵路",
    "location": {
        "lat": 31.021819,
        "lng": 121.36863
    },
    "address": "上海市闵行区",
    "province": "上海市",
    "city": "上海市",
    "area": "闵行区",
    "detail": 0,
    "uid": "55baf53a16104a0cb54f5481"
}{
    "name": "紫旭路",
    "location": {
        "lat": 31.023261,
        "lng": 121.36456
    },
    "address": "上海市闵行区",
    "province": "上海市",
    "city": "上海市",
    "area": "闵行区",
    "detail": 0,
    "uid": "5d24893a996927a040ab9a80"
}{
    "name": "天星路",
    "location": {
        "lat": 31.009592,
        "lng": 121.375681
    },
    "address": "上海市闵行区",
    "province": "上海市",
    "city": "上海市",
    "area": "闵行区",
    "detail": 0,
    "uid": "ba1c8658bdeb6544e0110385"
}{
    "name": "中辉路",
    "location": {
        "lat": 31.021079,
        "lng": 121.360886
    },
    "address": "上海市闵行区",
    "province": "上海市",
    "city": "上海市",
    "area": "闵行区",
    "detail": 0,
    "uid": "11cad277b905a6d476026966"
}{
    "name": "中青路",
    "location": {
        "lat": 31.027445,
        "lng": 121.363541
    },
    "address": "上海市闵行区",
    "province": "上海市",
    "city": "上海市",
    "area": "闵行区",
    "detail": 0,
    "uid": "b4a8b5fa9be7ff62c07da23c"
}{
    "name": "紫东路",
    "location": {
        "lat": 31.020924,
        "lng": 121.36512
    },
    "address": "上海市闵行区",
    "province": "上海市",
    "city": "上海市",
    "area": "闵行区",
    "detail": 0,
    "uid": "58e1682d4aed015a5ed4fef4"
}{
    "name": "昆阳路",
    "location": {
        "lat": 31.020879,
        "lng": 121.374283
    },
    "address": "上海市闵行区",
    "province": "上海市",
    "city": "上海市",
    "area": "闵行区",
    "detail": 0,
    "uid": "b7b98494b51b7a184007c10c"
}{
    "name": "富国路",
    "location": {
        "lat": 31.027575,
        "lng": 121.38595
    },
    "address": "上海市闵行区",
    "province": "上海市",
    "city": "上海市",
    "area": "闵行区",
    "detail": 0,
    "uid": "17dab0b57d31784b4d6d46c5"
}{
    "name": "绿春路",
    "location": {
        "lat": 31.013576,
        "lng": 121.380268
    },
    "address": "上海市闵行区",
    "province": "上海市",
    "city": "上海市",
    "area": "闵行区",
    "detail": 0,
    "uid": "cd3b33f0f7fb2fddbbdf8fdf"
}{
    "name": "陪昆路",
    "location": {
        "lat": 31.023776,
        "lng": 121.357891
    },
    "address": "上海市闵行区",
    "province": "上海市",
    "city": "上海市",
    "area": "闵行区",
    "detail": 0,
    "uid": "16ea5bf0fb50b53e20022011"
}{
    "name": "银林路",
    "location": {
        "lat": 31.025512,
        "lng": 121.388946
    },
    "address": "上海市闵行区",
    "province": "上海市",
    "city": "上海市",
    "area": "闵行区",
    "detail": 0,
    "uid": "53af95e2f91d160e6dc02c6d"
}{
    "name": "富国路",
    "location": {
        "lat": 31.027575,
        "lng": 121.38595
    },
    "address": "上海市闵行区",
    "province": "上海市",
    "city": "上海市",
    "area": "闵行区",
    "detail": 0,
    "uid": "17dab0b57d31784b4d6d46c5"
}{
    "name": "银康路",
    "location": {
        "lat": 31.027709,
        "lng": 121.392225
    },
    "address": "上海市闵行区",
    "province": "上海市",
    "city": "上海市",
    "area": "闵行区",
    "detail": 0,
    "uid": "14cf12a9ad2e8a57f31937d8"
}{
    "name": "文井路",
    "location": {
        "lat": 31.007962,
        "lng": 121.388607
    },
    "address": "上海市闵行区",
    "province": "上海市",
    "city": "上海市",
    "area": "闵行区",
    "detail": 0,
    "uid": "2bd0131a3f2fe5a796ec8419"
}{
    "name": "富卓路",
    "location": {
        "lat": 31.02653,
        "lng": 121.390542
    },
    "address": "上海市闵行区",
    "province": "上海市",
    "city": "上海市",
    "area": "闵行区",
    "detail": 0,
    "uid": "71058287cf26bf7a14c905cc"
}{
    "name": "青山路",
    "location": {
        "lat": 31.018286,
        "lng": 121.381415
    },
    "address": "上海市闵行区",
    "province": "上海市",
    "city": "上海市",
    "area": "闵行区",
    "detail": 0,
    "uid": "b39296b091be753e06026f38"
}{
    "name": "银春路",
    "location": {
        "lat": 31.031847,
        "lng": 121.397603
    },